fips,state,name,lat,long
1001,AL,Autauga County,32.532237,-86.64644
1003,AL,Baldwin County,30.659218,-87.746067
1005,AL,Barbour County,31.870252999999998,-85.405104
1007,AL,Bibb County,33.015893,-87.127148
1009,AL,Blount County,33.977358,-86.56644
1011,AL,Bullock County,32.101759,-85.717261
1013,AL,Butler County,31.751667,-86.681969
1015,AL,Calhoun County,33.770516,-85.827909
1017,AL,Chambers County,32.915504,-85.394032
1019,AL,Cherokee County,34.069515,-85.654242
1021,AL,Chilton County,32.854051,-86.726607
1023,AL,Choctaw County,31.990954,-88.248889
1025,AL,Clarke County,31.685521,-87.818624
1027,AL,Clay County,33.2704,-85.863525
1029,AL,Cleburne County,33.671964,-85.516126
1031,AL,Coffee County,31.402258,-85.989602
1033,AL,Colbert County,34.703112,-87.801457
1035,AL,Conecuh County,31.430926,-86.988722
1037,AL,Coosa County,32.931445,-86.243482
1039,AL,Covington County,31.243987,-86.448721
1041,AL,Crenshaw County,31.732826,-86.319222
1043,AL,Cullman County,34.131923,-86.869267
1045,AL,Dale County,31.430654,-85.609476
1047,AL,Dallas County,32.33354,-87.114356
1049,AL,DeKalb County,34.460929,-85.803992
1051,AL,Elmore County,32.597229,-86.142735
1053,AL,Escambia County,31.122287,-87.16841
1055,AL,Etowah County,34.047641,-86.034263
1057,AL,Fayette County,33.716157,-87.764292
1059,AL,Franklin County,34.441989,-87.842814
1061,AL,Geneva County,31.092382,-85.821022
1063,AL,Greene County,32.844497,-87.9642
1065,AL,Hale County,32.752796000000004,-87.623061
1067,AL,Henry County,31.516978,-85.239971
1069,AL,Houston County,31.158183,-85.296411
1071,AL,Jackson County,34.764114,-85.980056
1073,AL,Jefferson County,33.553444,-86.896536
1075,AL,Lamar County,33.787085,-88.087431
1077,AL,Lauderdale County,34.904122,-87.650997
1079,AL,Lawrence County,34.529776,-87.321865
1081,AL,Lee County,32.604064,-85.353048
1083,AL,Limestone County,34.810239,-86.981399
1085,AL,Lowndes County,32.147888,-86.650586
1087,AL,Macon County,32.387027,-85.692887
1089,AL,Madison County,34.764238,-86.55108
1091,AL,Marengo County,32.247591,-87.791091
1093,AL,Marion County,34.138219,-87.881551
1095,AL,Marshall County,34.309564,-86.321668
1097,AL,Mobile County,30.684572,-88.196568
1099,AL,Monroe County,31.580332,-87.383266
1101,AL,Montgomery County,32.202881,-86.204461
1103,AL,Morgan County,34.454484,-86.846402
1105,AL,Perry County,32.639005,-87.293827
1107,AL,Pickens County,33.296793,-88.096863
1109,AL,Pike County,31.798651,-85.941604
1111,AL,Randolph County,33.296475,-85.464068
1113,AL,Russell County,32.289811,-85.18698
1115,AL,St. Clair County,33.712963,-86.315663
1117,AL,Shelby County,33.263043,-86.678089
1119,AL,Sumter County,32.597481,-88.200057
1121,AL,Talladega County,33.369314,-86.17593
1123,AL,Tallapoosa County,32.863308,-85.799618
1125,AL,Tuscaloosa County,33.29022,-87.522783
1127,AL,Walker County,33.791558,-87.301094
1129,AL,Washington County,31.405217,-88.197564
1131,AL,Wilcox County,31.990082,-87.304935
1133,AL,Winston County,34.154566,-87.365346
2013,AK,Aleutians East Borough,55.245044,-161.997477
2016,AK,Aleutians West Census Area,51.948964,179.621188
2020,AK,Anchorage Municipality,61.17425,-149.284329
2050,AK,Bethel Census Area,60.929141,-160.152625
2060,AK,Bristol Bay Borough,58.741647,-156.966909
2068,AK,Denali Borough,63.682039,-150.027016
2070,AK,Dillingham Census Area,59.543326,-158.267123
2090,AK,Fairbanks North Star Borough,64.676044,-146.548159
2100,AK,Haines Borough,59.098404,-135.575791
2105,AK,Hoonah-Angoon Census Area,58.253462,-136.320731
2110,AK,Juneau City and Borough,58.37291,-134.178445
2122,AK,Kenai Peninsula Borough,60.360766,-152.05264
2130,AK,Ketchikan Gateway Borough,55.449938,-131.106685
2150,AK,Kodiak Island Borough,57.7044,-153.918372
2158,AK,Kusilvak Census Area,62.283588,-163.190171
2164,AK,Lake and Peninsula Borough,58.108507,-156.413413
2170,AK,Matanuska-Susitna Borough,62.279094,-149.619094
2180,AK,Nome Census Area,64.783686,-164.188912
2185,AK,North Slope Borough,69.449343,-153.47283
2188,AK,Northwest Arctic Borough,67.005066,-160.021086
2195,AK,Petersburg Borough,57.112458,-133.008598
2198,AK,Prince of Wales-Hyder Census Area,55.682773,-133.162389
2220,AK,Sitka City and Borough,57.193204,-135.367396
2230,AK,Skagway Municipality,59.560379,-135.338279
2240,AK,Southeast Fairbanks Census Area,63.864997,-143.218628
2261,AK,Valdez-Cordova Census Area,61.349843,-145.023109
2275,AK,Wrangell City and Borough,56.317416,-132.343978
2282,AK,Yakutat City and Borough,60.017453,-140.416942
2290,AK,Yukon-Koyukuk Census Area,65.375727,-151.57785
4001,AZ,Apache County,35.385084,-109.490172
4003,AZ,Cochise County,31.840129,-109.775163
4005,AZ,Coconino County,35.829692,-111.773728
4007,AZ,Gila County,33.789618,-110.81187
4009,AZ,Graham County,32.931828,-109.87831
4011,AZ,Greenlee County,33.238872,-109.242323
4012,AZ,La Paz County,33.72761,-114.038806
4013,AZ,Maricopa County,33.345176,-112.49893
4015,AZ,Mohave County,35.717705,-113.749689
4017,AZ,Navajo County,35.390785,-110.321025
4019,AZ,Pima County,32.128043,-111.783657
4021,AZ,Pinal County,32.918521,-111.36634
4023,AZ,Santa Cruz County,31.525733,-110.845228
4025,AZ,Yavapai County,34.631071,-112.577225
4027,AZ,Yuma County,32.773942,-113.910905
5001,AR,Arkansas County,34.28957,-91.376547
5003,AR,Ashley County,33.190835,-91.772267
5005,AR,Baxter County,36.280268,-92.329949
5007,AR,Benton County,36.337819,-94.256298
5009,AR,Boone County,36.304299,-93.079236
5011,AR,Bradley County,33.466549,-92.169156
5013,AR,Calhoun County,33.56046,-92.513879
5015,AR,Carroll County,36.33737,-93.540972
5017,AR,Chicot County,33.267139,-91.297158
5019,AR,Clark County,34.053316,-93.176208
5021,AR,Clay County,36.367302,-90.418704
5023,AR,Cleburne County,35.566315,-92.05995
5025,AR,Cleveland County,33.893201,-92.188714
5027,AR,Columbia County,33.223038,-93.232843
5029,AR,Conway County,35.265702,-92.689248
5031,AR,Craighead County,35.827729,-90.631421
5033,AR,Crawford County,35.583011,-94.236219
5035,AR,Crittenden County,35.211879,-90.315332
5037,AR,Cross County,35.285692,-90.763984
5039,AR,Dallas County,33.967823,-92.653999
5041,AR,Desha County,33.828752,-91.244103
5043,AR,Drew County,33.587242,-91.722778
5045,AR,Faulkner County,35.146548,-92.336928
5047,AR,Franklin County,35.508558,-93.887665
5049,AR,Fulton County,36.383619,-91.819664
5051,AR,Garland County,34.578852,-93.146932
5053,AR,Grant County,34.285568,-92.422979
5055,AR,Greene County,36.120607,-90.566346
5057,AR,Hempstead County,33.735953,-93.664355
5059,AR,Hot Spring County,34.315177,-92.944147
5061,AR,Howard County,34.083064,-93.990931
5063,AR,Independence County,35.737499,-91.559942
5065,AR,Izard County,36.094879,-91.913625
5067,AR,Jackson County,35.596467,-91.223205
5069,AR,Jefferson County,34.277239,-91.929673
5071,AR,Johnson County,35.573358999999996,-93.466322
5073,AR,Lafayette County,33.240629,-93.611514
5075,AR,Lawrence County,36.041098,-91.101153
5077,AR,Lee County,34.779505,-90.779717
5079,AR,Lincoln County,33.957675,-91.727626
5081,AR,Little River County,33.699497,-94.229774
5083,AR,Logan County,35.218654,-93.72091
5085,AR,Lonoke County,34.755114,-91.894132
5087,AR,Madison County,36.012545,-93.724053
5089,AR,Marion County,36.266664,-92.678577
5091,AR,Miller County,33.305505,-93.901502
5093,AR,Mississippi County,35.766944,-90.052207
5095,AR,Monroe County,34.679512,-91.20331
5097,AR,Montgomery County,34.545656,-93.664153
5099,AR,Nevada County,33.666699,-93.305072
5101,AR,Newton County,35.910742,-93.215898
5103,AR,Ouachita County,33.591168,-92.878413
5105,AR,Perry County,34.946363,-92.926877
5107,AR,Phillips County,34.423687,-90.855593
5109,AR,Pike County,34.158191,-93.658659
5111,AR,Poinsett County,35.56887,-90.681104
5113,AR,Polk County,34.490915,-94.230884
5115,AR,Pope County,35.456557,-93.026818
5117,AR,Prairie County,34.831116,-91.55362
5119,AR,Pulaski County,34.770311,-92.312996
5121,AR,Randolph County,36.341298,-91.028441
5123,AR,St. Francis County,35.022838,-90.751505
5125,AR,Saline County,34.648525,-92.674463
5127,AR,Scott County,34.858869,-94.063641
5129,AR,Searcy County,35.896387,-92.695888
5131,AR,Sebastian County,35.196981,-94.274989
5133,AR,Sevier County,33.994877,-94.243279
5135,AR,Sharp County,36.173399,-91.471069
5137,AR,Stone County,35.857001,-92.140482
5139,AR,Union County,33.168219,-92.598145
5141,AR,Van Buren County,35.582953,-92.515976
5143,AR,Washington County,35.978001,-94.217269
5145,AR,White County,35.255118,-91.753034
5147,AR,Woodruff County,35.192777,-91.244535
5149,AR,Yell County,34.997713,-93.408303
6001,CA,Alameda County,37.647139,-121.912488
6003,CA,Alpine County,38.621783,-119.798352
6005,CA,Amador County,38.44355,-120.653856
6007,CA,Butte County,39.665959,-121.601919
6009,CA,Calaveras County,38.1839,-120.561441
6011,CA,Colusa County,39.177739,-122.237563
6013,CA,Contra Costa County,37.919479,-121.951543
6015,CA,Del Norte County,41.763958,-124.003614
6017,CA,El Dorado County,38.785612,-120.534225
6019,CA,Fresno County,36.761006,-119.655019
6021,CA,Glenn County,39.602546,-122.4017
6023,CA,Humboldt County,40.706655,-123.926176
6025,CA,Imperial County,33.040814,-115.3554
6027,CA,Inyo County,36.561977,-117.403927
6029,CA,Kern County,35.346629,-118.729506
6031,CA,Kings County,36.072478,-119.81553
6033,CA,Lake County,39.094802,-122.746757
6035,CA,Lassen County,40.721086,-120.629952
6037,CA,Los Angeles County,34.196398,-118.261862
6039,CA,Madera County,37.209821,-119.749802
6041,CA,Marin County,38.051817,-122.745974
6043,CA,Mariposa County,37.57003,-119.912861
6045,CA,Mendocino County,39.432388,-123.442881
6047,CA,Merced County,37.194806,-120.722802
6049,CA,Modoc County,41.592918,-120.71837
6051,CA,Mono County,37.915836,-118.875167
6053,CA,Monterey County,36.240107,-121.315572
6055,CA,Napa County,38.5071,-122.325904
6057,CA,Nevada County,39.297508,-120.771343
6059,CA,Orange County,33.675686999999996,-117.777207
6061,CA,Placer County,39.062032,-120.722718
6063,CA,Plumas County,39.992295,-120.824371
6065,CA,Riverside County,33.729828,-116.002239
6067,CA,Sacramento County,38.450016,-121.340441
6069,CA,San Benito County,36.611651,-121.085811
6071,CA,San Bernardino County,34.85722,-116.181197
6073,CA,San Diego County,33.023604,-116.776117
6075,CA,San Francisco County,37.727239,-123.032229
6077,CA,San Joaquin County,37.934982,-121.272244
6079,CA,San Luis Obispo County,35.385224,-120.447544
6081,CA,San Mateo County,37.414672,-122.371546
6083,CA,Santa Barbara County,34.537057,-120.039973
6085,CA,Santa Clara County,37.220695,-121.69051
6087,CA,Santa Cruz County,37.012488,-122.007205
6089,CA,Shasta County,40.760514,-122.043556
6091,CA,Sierra County,39.576925,-120.521993
6093,CA,Siskiyou County,41.587986,-122.533287
6095,CA,Solano County,38.267226,-121.939594
6097,CA,Sonoma County,38.525182,-122.92611
6099,CA,Stanislaus County,37.562316,-121.002831
6101,CA,Sutter County,39.03619,-121.70394
6103,CA,Tehama County,40.126157,-122.232274
6105,CA,Trinity County,40.647803,-123.114476
6107,CA,Tulare County,36.228834,-118.781055
6109,CA,Tuolumne County,38.021434,-119.964733
6111,CA,Ventura County,34.358741,-119.133143
6113,CA,Yolo County,38.679596,-121.902441
6115,CA,Yuba County,39.27013,-121.344259
8001,CO,Adams County,39.874325,-104.331872
8003,CO,Alamosa County,37.568442,-105.788041
8005,CO,Arapahoe County,39.644554,-104.331706
8007,CO,Archuleta County,37.202395,-107.050863
8009,CO,Baca County,37.30978,-102.543741
8011,CO,Bent County,37.931891,-103.077584
8013,CO,Boulder County,40.09497,-105.397691
8014,CO,Broomfield County,39.953593,-105.050787
8015,CO,Chaffee County,38.738223,-106.316683
8017,CO,Cheyenne County,38.835646,-102.601791
8019,CO,Clear Creek County,39.669732,-105.69257
8021,CO,Conejos County,37.213406,-106.176447
8023,CO,Costilla County,37.277547,-105.42894
8025,CO,Crowley County,38.30618,-103.772736
8027,CO,Custer County,38.101996,-105.373512
8029,CO,Delta County,38.861595,-107.864892
8031,CO,Denver County,39.76185,-104.881105
8033,CO,Dolores County,37.711723,-108.524116
8035,CO,Douglas County,39.325414,-104.925987
8037,CO,Eagle County,39.626992,-106.69516899999999
8039,CO,Elbert County,39.315157,-104.114076
8041,CO,El Paso County,38.827383,-104.527472
8043,CO,Fremont County,38.45517,-105.424958
8045,CO,Garfield County,39.599352,-107.90978
8047,CO,Gilpin County,39.861156,-105.528878
8049,CO,Grand County,40.113065,-106.110837
8051,CO,Gunnison County,38.670499,-107.05688
8053,CO,Hinsdale County,37.821165,-107.338261
8055,CO,Huerfano County,37.687815,-104.959928
8057,CO,Jackson County,40.663432,-106.329248
8059,CO,Jefferson County,39.579511,-105.245462
8061,CO,Kiowa County,38.387663,-102.756849
8063,CO,Kit Carson County,39.30534,-102.603023
8065,CO,Lake County,39.205341,-106.350079
8067,CO,La Plata County,37.287367,-107.839718
8069,CO,Larimer County,40.658093,-105.486764
8071,CO,Las Animas County,37.318831,-104.04411
8073,CO,Lincoln County,38.99374,-103.507555
8075,CO,Logan County,40.728091,-103.090464
8077,CO,Mesa County,39.019524,-108.460571
8079,CO,Mineral County,37.549067,-107.003236
8081,CO,Moffat County,40.610864,-108.217154
8083,CO,Montezuma County,37.338025,-108.595786
8085,CO,Montrose County,38.407507,-108.266282
8087,CO,Morgan County,40.263159,-103.81221
8089,CO,Otero County,37.88417,-103.72126
8091,CO,Ouray County,38.154731,-107.78848
8093,CO,Park County,39.118914,-105.717648
8095,CO,Phillips County,40.594712,-102.345105
8097,CO,Pitkin County,39.217538,-106.916159
8099,CO,Prowers County,37.958181,-102.392161
8101,CO,Pueblo County,38.170658,-104.489892
8103,CO,Rio Blanco County,39.972622,-108.200716
8105,CO,Rio Grande County,37.485853,-106.453128
8107,CO,Routt County,40.483664,-106.987702
8109,CO,Saguache County,38.031651,-106.234666
8111,CO,San Juan County,37.781049,-107.670257
8113,CO,San Miguel County,38.009319,-108.427263
8115,CO,Sedgwick County,40.871568,-102.355358
8117,CO,Summit County,39.621023,-106.137555
8119,CO,Teller County,38.869976,-105.187365
8121,CO,Washington County,39.96579,-103.209744
8123,CO,Weld County,40.555960999999996,-104.383666
8125,CO,Yuma County,40.00077,-102.421649
9001,CT,Fairfield County,41.227413,-73.367061
9003,CT,Hartford County,41.806053,-72.732916
9005,CT,Litchfield County,41.791883,-73.235404
9007,CT,Middlesex County,41.433003,-72.52278
9009,CT,New Haven County,41.349718,-72.900203
9011,CT,New London County,41.472652,-72.108634
9013,CT,Tolland County,41.858081,-72.340978
9015,CT,Windham County,41.824999,-71.990702
10001,DE,Kent County,39.097088,-75.502982
10003,DE,New Castle County,39.575915,-75.644132
10005,DE,Sussex County,38.673227,-75.337024
11001,DC,District of Columbia,38.904247,-77.016517
12001,FL,Alachua County,29.67574,-82.357221
12003,FL,Baker County,30.324442,-82.302284
12005,FL,Bay County,30.238218,-85.63168
12007,FL,Bradford County,29.952386,-82.166679
12009,FL,Brevard County,28.298310999999998,-80.700333
12011,FL,Broward County,26.193535,-80.476683
12013,FL,Calhoun County,30.388801,-85.197915
12015,FL,Charlotte County,26.868974,-81.941278
12017,FL,Citrus County,28.84364,-82.52481
12019,FL,Clay County,29.986584,-81.865036
12021,FL,Collier County,26.118786,-81.400955
12023,FL,Columbia County,30.221651,-82.623371
12027,FL,DeSoto County,27.190581,-81.806253
12029,FL,Dixie County,29.580899,-83.195666
12031,FL,Duval County,30.335245,-81.648113
12033,FL,Escambia County,30.611638,-87.3389
12035,FL,Flagler County,29.474891,-81.286253
12037,FL,Franklin County,29.810176,-84.799174
12039,FL,Gadsden County,30.578687,-84.612607
12041,FL,Gilchrist County,29.723456,-82.795801
12043,FL,Glades County,26.95481,-81.19082
12045,FL,Gulf County,29.907257,-85.256537
12047,FL,Hamilton County,30.491187,-82.951071
12049,FL,Hardee County,27.492846,-81.82158
12051,FL,Hendry County,26.539967,-81.152114
12053,FL,Hernando County,28.573043,-82.466227
12055,FL,Highlands County,27.34108,-81.342353
12057,FL,Hillsborough County,27.906607,-82.349719
12059,FL,Holmes County,30.862007,-85.815939
12061,FL,Indian River County,27.700528,-80.574789
12063,FL,Jackson County,30.789249,-85.208814
12065,FL,Jefferson County,30.424558,-83.890859
12067,FL,Lafayette County,29.990066,-83.17851
12069,FL,Lake County,28.764113,-81.712282
12071,FL,Lee County,26.559035,-81.891994
12073,FL,Leon County,30.45931,-84.2778
12075,FL,Levy County,29.284457,-82.783462
12077,FL,Liberty County,30.259849,-84.86858
12079,FL,Madison County,30.447233,-83.470416
12081,FL,Manatee County,27.481682,-82.368767
12083,FL,Marion County,29.202805,-82.0431
12085,FL,Martin County,27.083604,-80.398201
12086,FL,Miami-Dade County,25.61058,-80.497099
12087,FL,Monroe County,24.768883,-80.95327
12089,FL,Nassau County,30.605963,-81.765087
12091,FL,Okaloosa County,30.665851,-86.594187
12093,FL,Okeechobee County,27.385592,-80.887388
12095,FL,Orange County,28.514391,-81.323284
12097,FL,Osceola County,28.059027,-81.139312
12099,FL,Palm Beach County,26.649126,-80.448354
12101,FL,Pasco County,28.307711,-82.464832
12103,FL,Pinellas County,27.903108,-82.739519
12105,FL,Polk County,27.953649,-81.693534
12107,FL,Putnam County,29.593896,-81.732039
12109,FL,St. Johns County,29.890487,-81.40004
12111,FL,St. Lucie County,27.379814,-80.443536
12113,FL,Santa Rosa County,30.701269,-87.01289
12115,FL,Sarasota County,27.184386,-82.365835
12117,FL,Seminole County,28.690092,-81.131989
12119,FL,Sumter County,28.714101,-82.074347
12121,FL,Suwannee County,30.189244,-82.992754
12123,FL,Taylor County,30.009908,-83.609483
12125,FL,Union County,30.05428,-82.366918
12127,FL,Volusia County,29.057769,-81.161792
12129,FL,Wakulla County,30.139432,-84.374846
12131,FL,Walton County,30.631211,-86.176614
12133,FL,Washington County,30.602217,-85.662797
13001,GA,Appling County,31.739712,-82.290103
13003,GA,Atkinson County,31.296806,-82.878151
13005,GA,Bacon County,31.55021,-82.451433
13007,GA,Baker County,31.31958,-84.454881
13009,GA,Baldwin County,33.05949,-83.255457
13011,GA,Banks County,34.351922,-83.498441
13013,GA,Barrow County,33.992009,-83.712303
13015,GA,Bartow County,34.240917,-84.838188
13017,GA,Ben Hill County,31.740772,-83.147197
13019,GA,Berrien County,31.288652,-83.22787
13021,GA,Bibb County,32.808845,-83.694194
13023,GA,Bleckley County,32.435403,-83.331717
13025,GA,Brantley County,31.197334,-81.982978
13027,GA,Brooks County,30.822934,-83.581905
13029,GA,Bryan County,32.017969,-81.438543
13031,GA,Bulloch County,32.391711,-81.744021
13033,GA,Burke County,33.060181,-82.000164
13035,GA,Butts County,33.290355,-83.958221
13037,GA,Calhoun County,31.521279,-84.62629
13039,GA,Camden County,30.913358,-81.642019
13043,GA,Candler County,32.40395,-82.071266
13045,GA,Carroll County,33.582237,-85.080527
13047,GA,Catoosa County,34.900218,-85.139386
13049,GA,Charlton County,30.779904,-82.139644
13051,GA,Chatham County,31.980404,-81.085184
13053,GA,Chattahoochee County,32.347445,-84.788021
13055,GA,Chattooga County,34.474178,-85.345289
13057,GA,Cherokee County,34.244317,-84.475057
13059,GA,Clarke County,33.952185,-83.367152
13061,GA,Clay County,31.619831,-84.992583
13063,GA,Clayton County,33.542686,-84.355573
13065,GA,Clinch County,30.917653,-82.702614
13067,GA,Cobb County,33.93993,-84.574112
13069,GA,Coffee County,31.549245,-82.84494
13071,GA,Colquitt County,31.189707,-83.769773
13073,GA,Columbia County,33.547631,-82.252296
13075,GA,Cook County,31.152516,-83.429445
13077,GA,Coweta County,33.352897,-84.762138
13079,GA,Crawford County,32.709428,-83.979187
13081,GA,Crisp County,31.915148,-83.753531
13083,GA,Dade County,34.852424,-85.506201
13085,GA,Dawson County,34.442608,-84.173261
13087,GA,Decatur County,30.880643,-84.58389
13089,GA,DeKalb County,33.770661,-84.226343
13091,GA,Dodge County,32.164369,-83.167866
13093,GA,Dooly County,32.151995,-83.807167
13095,GA,Dougherty County,31.532588,-84.20904
13097,GA,Douglas County,33.701242,-84.767314
13099,GA,Early County,31.324191,-84.906723
13101,GA,Echols County,30.714008,-82.897376
13103,GA,Effingham County,32.36168,-81.343372
13105,GA,Elbert County,34.116413,-82.841909
13107,GA,Emanuel County,32.5911,-82.299763
13109,GA,Evans County,32.153083,-81.890153
13111,GA,Fannin County,34.866543,-84.317331
13113,GA,Fayette County,33.412717,-84.493941
13115,GA,Floyd County,34.263692,-85.213685
13117,GA,Forsyth County,34.225143,-84.127408
13119,GA,Franklin County,34.375266,-83.227532
13121,GA,Fulton County,33.790034,-84.468182
13123,GA,Gilmer County,34.690506,-84.454624
13125,GA,Glascock County,33.227491,-82.606913
13127,GA,Glynn County,31.21271,-81.49645
13129,GA,Gordon County,34.509667,-84.873862
13131,GA,Grady County,30.875908,-84.24508
13133,GA,Greene County,33.57674,-83.166613
13135,GA,Gwinnett County,33.959146,-84.023087
13137,GA,Habersham County,34.634392,-83.525875
13139,GA,Hall County,34.317569,-83.8185
13141,GA,Hancock County,33.26922,-83.000465
13143,GA,Haralson County,33.795165,-85.220063
13145,GA,Harris County,32.731549,-84.912432
13147,GA,Hart County,34.348733,-82.96329
13149,GA,Heard County,33.291347,-85.137886
13151,GA,Henry County,33.452947,-84.154021
13153,GA,Houston County,32.458287,-83.662522
13155,GA,Irwin County,31.604306,-83.277037
13157,GA,Jackson County,34.130905,-83.562557
13159,GA,Jasper County,33.316981,-83.689151
13161,GA,Jeff Davis County,31.811615,-82.636825
13163,GA,Jefferson County,33.058176,-82.420004
13165,GA,Jenkins County,32.794563,-81.971524
13167,GA,Johnson County,32.694584,-82.66397
13169,GA,Jones County,33.021664,-83.562196
13171,GA,Lamar County,33.07444,-84.146689
13173,GA,Lanier County,31.038197,-83.063164
13175,GA,Laurens County,32.39322,-82.926317
13177,GA,Lee County,31.818419,-84.146681
13179,GA,Liberty County,31.807458,-81.457871
13181,GA,Lincoln County,33.792151,-82.448299
13183,GA,Long County,31.749563,-81.74287
13185,GA,Lowndes County,30.833145,-83.268995
13187,GA,Lumpkin County,34.56814,-83.998925
13189,GA,McDuffie County,33.479623,-82.478733
13191,GA,McIntosh County,31.488506,-81.372289
13193,GA,Macon County,32.362686,-84.051231
13195,GA,Madison County,34.128526,-83.203737
13197,GA,Marion County,32.359312,-84.528735
13199,GA,Meriwether County,33.029267,-84.667058
13201,GA,Miller County,31.162931,-84.730398
13205,GA,Mitchell County,31.228997,-84.192038
13207,GA,Monroe County,33.017435,-83.922938
13209,GA,Montgomery County,32.172108,-82.533349
13211,GA,Morgan County,33.598696,-83.499435
13213,GA,Murray County,34.797097,-84.73799
13215,GA,Muscogee County,32.510197,-84.874946
13217,GA,Newton County,33.544041,-83.855184
13219,GA,Oconee County,33.834125,-83.437728
13221,GA,Oglethorpe County,33.866806,-83.074081
13223,GA,Paulding County,33.92103,-84.867169
13225,GA,Peach County,32.571324,-83.831978
13227,GA,Pickens County,34.456746,-84.490351
13229,GA,Pierce County,31.353998,-82.21037
13231,GA,Pike County,33.081224,-84.389848
13233,GA,Polk County,33.996015,-85.188338
13235,GA,Pulaski County,32.238803,-83.481845
13237,GA,Putnam County,33.32106,-83.37179
13239,GA,Quitman County,31.862938,-85.004798
13241,GA,Rabun County,34.883933999999996,-83.40487
13243,GA,Randolph County,31.762650999999998,-84.752311
13245,GA,Richmond County,33.361486,-82.074998
13247,GA,Rockdale County,33.652081,-84.02637
13249,GA,Schley County,32.263444,-84.322708
13251,GA,Screven County,32.744751,-81.617585
13253,GA,Seminole County,30.93396,-84.867685
13255,GA,Spalding County,33.262348,-84.284905
13257,GA,Stephens County,34.552914,-83.290216
13259,GA,Stewart County,32.073225,-84.834912
13261,GA,Sumter County,32.042266,-84.204294
13263,GA,Talbot County,32.704603,-84.530029
13265,GA,Taliaferro County,33.559319,-82.875272
13267,GA,Tattnall County,32.043768,-82.059208
13269,GA,Taylor County,32.554667,-84.251426
13271,GA,Telfair County,31.913641,-82.931063
13273,GA,Terrell County,31.777191,-84.439446
13275,GA,Thomas County,30.864619,-83.919815
13277,GA,Tift County,31.457003,-83.525931
13279,GA,Toombs County,32.117812,-82.330626
13281,GA,Towns County,34.902529,-83.732264
13283,GA,Treutlen County,32.409586,-82.570882
13285,GA,Troup County,33.034482,-85.02836
13287,GA,Turner County,31.7248,-83.620319
13289,GA,Twiggs County,32.665847,-83.425879
13291,GA,Union County,34.833333,-83.989257
13293,GA,Upson County,32.881837,-84.292283
13295,GA,Walker County,34.735802,-85.305456
13297,GA,Walton County,33.783887,-83.731829
13299,GA,Ware County,31.050881,-82.421507
13301,GA,Warren County,33.419169,-82.688012
13303,GA,Washington County,32.971843,-82.798112
13305,GA,Wayne County,31.547845,-81.912376
13307,GA,Webster County,32.046691,-84.553828
13309,GA,Wheeler County,32.105258,-82.733849
13311,GA,White County,34.643776,-83.743417
13313,GA,Whitfield County,34.801726,-84.968541
13315,GA,Wilcox County,31.96272,-83.438259
13317,GA,Wilkes County,33.779031,-82.747921
13319,GA,Wilkinson County,32.804266,-83.175512
13321,GA,Worth County,31.551773,-83.84996
15001,HI,Hawaii County,19.597764,-155.502443
15003,HI,Honolulu County,21.580023,-158.123406
15005,HI,Kalawao County,21.218764,-156.97401
15007,HI,Kauai County,22.012038,-159.705965
15009,HI,Maui County,20.855930999999998,-156.60155
16001,ID,Ada County,43.451477,-116.244376
16003,ID,Adams County,44.877004,-116.461624
16005,ID,Bannock County,42.692921,-112.228982
16007,ID,Bear Lake County,42.285892,-111.327517
16009,ID,Benewah County,47.218451,-116.633541
16011,ID,Bingham County,43.216357,-112.399206
16013,ID,Blaine County,43.394192,-113.955371
16015,ID,Boise County,43.987275,-115.71511
16017,ID,Bonner County,48.316796,-116.612364
16019,ID,Bonneville County,43.395171,-111.621878
16021,ID,Boundary County,48.773131,-116.524668
16023,ID,Butte County,43.685101,-113.177631
16025,ID,Camas County,43.502552,-114.772135
16027,ID,Canyon County,43.625796,-116.709058
16029,ID,Caribou County,42.786072,-111.544273
16031,ID,Cassia County,42.282313,-113.626328
16033,ID,Clark County,44.290218,-112.354613
16035,ID,Clearwater County,46.67257,-115.6535
16037,ID,Custer County,44.273351,-114.252267
16039,ID,Elmore County,43.394698,-115.471205
16041,ID,Franklin County,42.173609,-111.822965
16043,ID,Fremont County,44.218091,-111.484429
16045,ID,Gem County,44.061473,-116.398784
16047,ID,Gooding County,42.973185,-114.82142
16049,ID,Idaho County,45.849644,-115.467337
16051,ID,Jefferson County,43.796965,-112.318588
16053,ID,Jerome County,42.691395,-114.262086
16055,ID,Kootenai County,47.675966,-116.695922
16057,ID,Latah County,46.81892,-116.730974
16059,ID,Lemhi County,44.928506,-113.887042
16061,ID,Lewis County,46.236328,-116.42376
16063,ID,Lincoln County,42.986181,-114.153899
16065,ID,Madison County,43.788614,-111.656993
16067,ID,Minidoka County,42.857211,-113.63984
16069,ID,Nez Perce County,46.333791,-116.760909
16071,ID,Oneida County,42.183895,-112.520449
16073,ID,Owyhee County,42.572851,-116.18969
16075,ID,Payette County,44.00243,-116.750238
16077,ID,Power County,42.694126,-112.844407
16079,ID,Shoshone County,47.347694,-115.885092
16081,ID,Teton County,43.760994,-111.211765
16083,ID,Twin Falls County,42.352309,-114.665639
16085,ID,Valley County,44.85596,-115.618061
16087,ID,Washington County,44.448223,-116.797792
17001,IL,Adams County,39.986052,-91.194961
17003,IL,Alexander County,37.183658,-89.349516
17005,IL,Bond County,38.885924,-89.436592
17007,IL,Boone County,42.318983,-88.824295
17009,IL,Brown County,39.962069,-90.750309
17011,IL,Bureau County,41.401304,-89.528377
17013,IL,Calhoun County,39.164262,-90.666295
17015,IL,Carroll County,42.0709,-89.924189
17017,IL,Cass County,39.969202,-90.245704
17019,IL,Champaign County,40.138985,-88.196975
17021,IL,Christian County,39.545524,-89.279593
17023,IL,Clark County,39.332334,-87.791683
17025,IL,Clay County,38.746819,-88.482325
17027,IL,Clinton County,38.606295,-89.426228
17029,IL,Coles County,39.51368,-88.220782
17031,IL,Cook County,41.894294,-87.645455
17033,IL,Crawford County,39.002787,-87.760619
17035,IL,Cumberland County,39.273121,-88.240619
17037,IL,DeKalb County,41.894612,-88.768991
17039,IL,De Witt County,40.181499,-88.901853
17041,IL,Douglas County,39.766078,-88.222866
17043,IL,DuPage County,41.852058,-88.086039
17045,IL,Edgar County,39.679037,-87.74711
17047,IL,Edwards County,38.417095,-88.047941
17049,IL,Effingham County,39.047945,-88.592849
17051,IL,Fayette County,39.001125,-89.017923
17053,IL,Ford County,40.596539,-88.224588
17055,IL,Franklin County,37.991852,-88.926321
17057,IL,Fulton County,40.46524,-90.202269
17059,IL,Gallatin County,37.768677,-88.227964
17061,IL,Greene County,39.355439,-90.387682
17063,IL,Grundy County,41.29241,-88.401054
17065,IL,Hamilton County,38.085227,-88.539009
17067,IL,Hancock County,40.401318,-91.168801
17069,IL,Hardin County,37.517852,-88.266148
17071,IL,Henderson County,40.814471,-90.941246
17073,IL,Henry County,41.350021,-90.130838
17075,IL,Iroquois County,40.748867,-87.833601
17077,IL,Jackson County,37.786096,-89.381212
17079,IL,Jasper County,39.004874,-88.150763
17081,IL,Jefferson County,38.30078,-88.92421
17083,IL,Jersey County,39.080195,-90.361385
17085,IL,Jo Daviess County,42.362391,-90.21147
17087,IL,Johnson County,37.460709,-88.882131
17089,IL,Kane County,41.939594,-88.42804
17091,IL,Kankakee County,41.13951,-87.861117
17093,IL,Kendall County,41.58814,-88.430626
17095,IL,Knox County,40.930945,-90.213792
17097,IL,Lake County,42.326441,-87.435976
17099,IL,LaSalle County,41.343341,-88.885931
17101,IL,Lawrence County,38.718954,-87.730221
17103,IL,Lee County,41.747447,-89.299362
17105,IL,Livingston County,40.894376,-88.552852
17107,IL,Logan County,40.129277,-89.365309
17109,IL,McDonough County,40.455808,-90.678954
17111,IL,McHenry County,42.324298,-88.452245
17113,IL,McLean County,40.494559,-88.844539
17115,IL,Macon County,39.860237,-88.961529
17117,IL,Macoupin County,39.265914,-89.92633000000001
17119,IL,Madison County,38.82712,-89.900227
17121,IL,Marion County,38.648236,-88.920362
17123,IL,Marshall County,41.031119,-89.342371
17125,IL,Mason County,40.236993,-89.913575
17127,IL,Massac County,37.216119,-88.705658
17129,IL,Menard County,40.022569,-89.794133
17131,IL,Mercer County,41.205605,-90.74177
17133,IL,Monroe County,38.277983,-90.179078
17135,IL,Montgomery County,39.228068,-89.478141
17137,IL,Morgan County,39.717668,-90.205005
17139,IL,Moultrie County,39.636896,-88.625726
17141,IL,Ogle County,42.041884,-89.320176
17143,IL,Peoria County,40.785972,-89.766993
17145,IL,Perry County,38.084381,-89.368525
17147,IL,Piatt County,40.009033,-88.592355
17149,IL,Pike County,39.625106,-90.889034
17151,IL,Pope County,37.417169,-88.542374
17153,IL,Pulaski County,37.215615,-89.127755
17155,IL,Putnam County,41.198961,-89.298347
17157,IL,Randolph County,38.056515,-89.82121
17159,IL,Richland County,38.712187,-88.085452
17161,IL,Rock Island County,41.468421,-90.572125
17163,IL,St. Clair County,38.470198,-89.928546
17165,IL,Saline County,37.751508,-88.545024
17167,IL,Sangamon County,39.756867,-89.662425
17169,IL,Schuyler County,40.156905,-90.613464
17171,IL,Scott County,39.637002,-90.477771
17173,IL,Shelby County,39.384926,-88.798862
17175,IL,Stark County,41.096908,-89.797411
17177,IL,Stephenson County,42.349726,-89.665994
17179,IL,Tazewell County,40.508074,-89.51626
17181,IL,Union County,37.485652,-89.244639
17183,IL,Vermilion County,40.186754,-87.726778
17185,IL,Wabash County,38.445821,-87.839167
17187,IL,Warren County,40.850441000000004,-90.620223
17189,IL,Washington County,38.35314,-89.417187
17191,IL,Wayne County,38.431857,-88.43243
17193,IL,White County,38.087326,-88.178623
17195,IL,Whiteside County,41.750673,-89.911005
17197,IL,Will County,41.448474,-87.978456
17199,IL,Williamson County,37.730353,-88.930018
17201,IL,Winnebago County,42.337396,-89.161205
17203,IL,Woodford County,40.789787,-89.210587
18001,IN,Adams County,40.745733,-84.93613
18003,IN,Allen County,41.091909,-85.071791
18005,IN,Bartholomew County,39.205843,-85.897999
18007,IN,Benton County,40.600939,-87.314786
18009,IN,Blackford County,40.472672,-85.32373
18011,IN,Boone County,40.050892,-86.469014
18013,IN,Brown County,39.195113,-86.230121
18015,IN,Carroll County,40.58498,-86.565141
18017,IN,Cass County,40.753799,-86.355168
18019,IN,Clark County,38.476217,-85.711122
18021,IN,Clay County,39.393928,-87.115858
18023,IN,Clinton County,40.305944,-86.477567
18025,IN,Crawford County,38.289433,-86.440871
18027,IN,Daviess County,38.69609,-87.076943
18029,IN,Dearborn County,39.14832,-84.973498
18031,IN,Decatur County,39.30598,-85.499831
18033,IN,DeKalb County,41.401189,-85.000185
18035,IN,Delaware County,40.227543,-85.399262
18037,IN,Dubois County,38.373344,-86.873385
18039,IN,Elkhart County,41.600693,-85.863986
18041,IN,Fayette County,39.639655,-85.185032
18043,IN,Floyd County,38.318081,-85.911847
18045,IN,Fountain County,40.121237,-87.234872
18047,IN,Franklin County,39.409762,-85.066964
18049,IN,Fulton County,41.050384,-86.265006
18051,IN,Gibson County,38.317398,-87.580523
18053,IN,Grant County,40.515758,-85.654946
18055,IN,Greene County,39.047147,-87.004771
18057,IN,Hamilton County,40.053507,-86.021713
18059,IN,Hancock County,39.822529,-85.77315
18061,IN,Harrison County,38.186454,-86.103766
18063,IN,Hendricks County,39.768963,-86.509908
18065,IN,Henry County,39.929591,-85.397363
18067,IN,Howard County,40.483537,-86.114118
18069,IN,Huntington County,40.826394,-85.478597
18071,IN,Jackson County,38.911957,-86.042516
18073,IN,Jasper County,41.017688,-87.118814
18075,IN,Jay County,40.434956,-85.002331
18077,IN,Jefferson County,38.783604,-85.44009
18079,IN,Jennings County,38.996229,-85.628103
18081,IN,Johnson County,39.496092,-86.094264
18083,IN,Knox County,38.688391,-87.420354
18085,IN,Kosciusko County,41.244293,-85.861575
18087,IN,LaGrange County,41.642462,-85.427845
18089,IN,Lake County,41.472247,-87.374337
18091,IN,LaPorte County,41.549013,-86.744739
18093,IN,Lawrence County,38.839815,-86.48782
18095,IN,Madison County,40.166203,-85.722454
18097,IN,Marion County,39.782976,-86.135794
18099,IN,Marshall County,41.325003,-86.269036
18101,IN,Martin County,38.705322,-86.801847
18103,IN,Miami County,40.772883,-86.044258
18105,IN,Monroe County,39.160729,-86.52331
18107,IN,Montgomery County,40.040296,-86.892715
18109,IN,Morgan County,39.482646,-86.447457
18111,IN,Newton County,40.962399,-87.402172
18113,IN,Noble County,41.404679,-85.417271
18115,IN,Ohio County,38.940527,-84.964299
18117,IN,Orange County,38.547381,-86.489257
18119,IN,Owen County,39.317339,-86.838845
18121,IN,Parke County,39.77425,-87.19695
18123,IN,Perry County,38.081436,-86.62654
18125,IN,Pike County,38.397961,-87.232547
18127,IN,Porter County,41.509914,-87.071313
18129,IN,Posey County,38.027614,-87.868653
18131,IN,Pulaski County,41.045272,-86.692538
18133,IN,Putnam County,39.665548,-86.853373
18135,IN,Randolph County,40.164079,-85.00579
18137,IN,Ripley County,39.100226,-85.260494
18139,IN,Rush County,39.622379,-85.466446
18141,IN,St. Joseph County,41.617723,-86.288048
18143,IN,Scott County,38.679431,-85.751898
18145,IN,Shelby County,39.524135,-85.792174
18147,IN,Spencer County,38.009697,-87.010375
18149,IN,Starke County,41.284478,-86.644636
18151,IN,Steuben County,41.643467,-85.002405
18153,IN,Sullivan County,39.089225,-87.415843
18155,IN,Switzerland County,38.825854,-85.029681
18157,IN,Tippecanoe County,40.389133,-86.893554
18159,IN,Tipton County,40.310229,-86.056207
18161,IN,Union County,39.623111,-84.925152
18163,IN,Vanderburgh County,38.02007,-87.586166
18165,IN,Vermillion County,39.854045,-87.462071
18167,IN,Vigo County,39.429143,-87.390375
18169,IN,Wabash County,40.843747,-85.795192
18171,IN,Warren County,40.352658,-87.375847
18173,IN,Warrick County,38.097728,-87.272049
18175,IN,Washington County,38.600613,-86.104751
18177,IN,Wayne County,39.863091,-85.006735
18179,IN,Wells County,40.735273,-85.212974
18181,IN,White County,40.75095,-86.864293
18183,IN,Whitley County,41.136426,-85.501892
19001,IA,Adair County,41.328528,-94.478164
19003,IA,Adams County,41.021656,-94.696906
19005,IA,Allamakee County,43.274964,-91.382751
19007,IA,Appanoose County,40.744296,-92.873061
19009,IA,Audubon County,41.679178,-94.904312
19011,IA,Benton County,42.092547,-92.05763
19013,IA,Black Hawk County,42.471132,-92.3076
19015,IA,Boone County,42.038642,-93.938358
19017,IA,Bremer County,42.780895,-92.327356
19019,IA,Buchanan County,42.470328,-91.838666
19021,IA,Buena Vista County,42.741522,-95.141432
19023,IA,Butler County,42.734757,-92.780153
19025,IA,Calhoun County,42.38617,-94.643683
19027,IA,Carroll County,42.039492,-94.867647
19029,IA,Cass County,41.333824,-94.933302
19031,IA,Cedar County,41.77236,-91.132611
19033,IA,Cerro Gordo County,43.074975,-93.250965
19035,IA,Cherokee County,42.742737,-95.633262
19037,IA,Chickasaw County,43.059741,-92.31721
19039,IA,Clarke County,41.029191,-93.784096
19041,IA,Clay County,43.081224,-95.149875
19043,IA,Clayton County,42.840985,-91.323576
19045,IA,Clinton County,41.898073,-90.534243
19047,IA,Crawford County,42.043119,-95.38909
19049,IA,Dallas County,41.68532,-94.040706
19051,IA,Davis County,40.748089,-92.410345
19053,IA,Decatur County,40.736379,-93.78458
19055,IA,Delaware County,42.472937,-91.366767
19057,IA,Des Moines County,40.915339,-91.186925
19059,IA,Dickinson County,43.389611,-95.196057
19061,IA,Dubuque County,42.463481,-90.878771
19063,IA,Emmet County,43.377984,-94.66937
19065,IA,Fayette County,42.864122,-91.840376
19067,IA,Floyd County,43.052741,-92.787367
19069,IA,Franklin County,42.736545,-93.271415
19071,IA,Fremont County,40.74259,-95.599182
19073,IA,Greene County,42.042494,-94.388703
19075,IA,Grundy County,42.403339,-92.790244
19077,IA,Guthrie County,41.683573,-94.501272
19079,IA,Hamilton County,42.390768,-93.709198
19081,IA,Hancock County,43.075411,-93.743697
19083,IA,Hardin County,42.390208,-93.241669
19085,IA,Harrison County,41.688584,-95.827149
19087,IA,Henry County,40.984802,-91.547259
19089,IA,Howard County,43.365312,-92.321908
19091,IA,Humboldt County,42.782221,-94.202775
19093,IA,Ida County,42.39186,-95.507421
19095,IA,Iowa County,41.683918,-92.059123
19097,IA,Jackson County,42.164226,-90.574582
19099,IA,Jasper County,41.685551,-93.054147
19101,IA,Jefferson County,41.005888,-91.966634
19103,IA,Johnson County,41.670668,-91.590529
19105,IA,Jones County,42.125118,-91.116914
19107,IA,Keokuk County,41.331182,-92.167721
19109,IA,Kossuth County,43.212478,-94.213983
19111,IA,Lee County,40.647588,-91.477157
19113,IA,Linn County,42.077951,-91.597674
19115,IA,Louisa County,41.218211,-91.256994
19117,IA,Lucas County,41.033344,-93.331467
19119,IA,Lyon County,43.38358,-96.207201
19121,IA,Madison County,41.330622,-94.015184
19123,IA,Mahaska County,41.330797,-92.636366
19125,IA,Marion County,41.331455,-93.093849
19127,IA,Marshall County,42.041691,-92.981452
19129,IA,Mills County,41.033703,-95.619101
19131,IA,Mitchell County,43.348564,-92.784466
19133,IA,Monona County,42.049432,-95.956566
19135,IA,Monroe County,41.028847,-92.869642
19137,IA,Montgomery County,41.021735,-95.15779
19139,IA,Muscatine County,41.483776,-91.118699
19141,IA,O'Brien County,43.083746,-95.625624
19143,IA,Osceola County,43.378542,-95.633788
19145,IA,Page County,40.73909,-95.14429
19147,IA,Palo Alto County,43.075337,-94.669055
19149,IA,Plymouth County,42.737585,-96.215864
19151,IA,Pocahontas County,42.734033,-94.678279
19153,IA,Polk County,41.684816,-93.568971
19155,IA,Pottawattamie County,41.340184,-95.544905
19157,IA,Poweshiek County,41.684526,-92.522882
19159,IA,Ringgold County,40.735334,-94.244251
19161,IA,Sac County,42.387526,-95.105224
19163,IA,Scott County,41.642079,-90.622289
19165,IA,Shelby County,41.679014,-95.308917
19167,IA,Sioux County,43.082646,-96.17801
19169,IA,Story County,42.037538,-93.466093
19171,IA,Tama County,42.074848,-92.529411
19173,IA,Taylor County,40.737949,-94.697108
19175,IA,Union County,41.02855,-94.245091
19177,IA,Van Buren County,40.754117,-91.952943
19179,IA,Wapello County,41.031275,-92.409466
19181,IA,Warren County,41.332446,-93.568751
19183,IA,Washington County,41.329401,-91.725052
19185,IA,Wayne County,40.739983,-93.332613
19187,IA,Webster County,42.433579,-94.175831
19189,IA,Winnebago County,43.378124,-93.743488
19191,IA,Winneshiek County,43.292989,-91.850788
19193,IA,Woodbury County,42.39322,-96.053296
19195,IA,Worth County,43.373491,-93.248533
19197,IA,Wright County,42.733007,-93.734735
20001,KS,Allen County,37.884228,-95.300945
20003,KS,Anderson County,38.215114,-95.292046
20005,KS,Atchison County,39.532544,-95.313397
20007,KS,Barber County,37.222906,-98.685052
20009,KS,Barton County,38.481239,-98.767837
20011,KS,Bourbon County,37.8561,-94.850928
20013,KS,Brown County,39.825931,-95.569905
20015,KS,Butler County,37.773649,-96.83884
20017,KS,Chase County,38.299475,-96.594029
20019,KS,Chautauqua County,37.154259,-96.245396
20021,KS,Cherokee County,37.169392,-94.845698
20023,KS,Cheyenne County,39.789917,-101.727325
20025,KS,Clark County,37.233831,-99.813869
20027,KS,Clay County,39.344964,-97.168853
20029,KS,Cloud County,39.487329,-97.64139
20031,KS,Coffey County,38.23645,-95.729137
20033,KS,Comanche County,37.181442,-99.251293
20035,KS,Cowley County,37.234507,-96.837247
20037,KS,Crawford County,37.505821,-94.853897
20039,KS,Decatur County,39.783542,-100.459708
20041,KS,Dickinson County,38.867735,-97.157943
20043,KS,Doniphan County,39.788502,-95.147225
20045,KS,Douglas County,38.896417,-95.290947
20047,KS,Edwards County,37.883595,-99.304746
20049,KS,Elk County,37.456026,-96.244642
20051,KS,Ellis County,38.914597,-99.317313
20053,KS,Ellsworth County,38.700845,-98.205355
20055,KS,Finney County,38.049808,-100.739967
20057,KS,Ford County,37.688416,-99.884748
20059,KS,Franklin County,38.558019,-95.278962
20061,KS,Geary County,39.002139,-96.7681
20063,KS,Gove County,38.917239,-100.48736
20065,KS,Graham County,39.354972,-99.879894
20067,KS,Grant County,37.547537,-101.299362
20069,KS,Gray County,37.744513,-100.451716
20071,KS,Greeley County,38.480404,-101.80597
20073,KS,Greenwood County,37.879347,-96.241732
20075,KS,Hamilton County,37.995244,-101.793689
20077,KS,Harper County,37.188184,-98.06659
20079,KS,Harvey County,38.050144,-97.436706
20081,KS,Haskell County,37.554979,-100.879952
20083,KS,Hodgeman County,38.087493,-99.898407
20085,KS,Jackson County,39.411145,-95.794485
20087,KS,Jefferson County,39.239644,-95.375314
20089,KS,Jewell County,39.777002,-98.222618
20091,KS,Johnson County,38.883907,-94.82233
20093,KS,Kearny County,37.994461,-101.308136
20095,KS,Kingman County,37.552951,-98.144529
20097,KS,Kiowa County,37.561231,-99.286539
20099,KS,Labette County,37.191468,-95.297473
20101,KS,Lane County,38.481286,-100.466185
20103,KS,Leavenworth County,39.189511,-95.038977
20105,KS,Lincoln County,39.04728,-98.214284
20107,KS,Linn County,38.216549,-94.844932
20109,KS,Logan County,38.91327,-101.157402
20111,KS,Lyon County,38.455403,-96.161641
20113,KS,McPherson County,38.395812,-97.647489
20115,KS,Marion County,38.359647,-97.102771
20117,KS,Marshall County,39.782709,-96.521243
20119,KS,Meade County,37.243886,-100.360094
20121,KS,Miami County,38.566772,-94.832963
20123,KS,Mitchell County,39.393026,-98.207362
20125,KS,Montgomery County,37.189537,-95.742403
20127,KS,Morris County,38.688204,-96.651448
20129,KS,Morton County,37.185249,-101.809516
20131,KS,Nemaha County,39.791043,-96.005381
20133,KS,Neosho County,37.564283,-95.315682
20135,KS,Ness County,38.480437,-99.908745
20137,KS,Norton County,39.783867,-99.899235
20139,KS,Osage County,38.650215,-95.708255
20141,KS,Osborne County,39.348261,-98.767942
20143,KS,Ottawa County,39.137963,-97.654802
20145,KS,Pawnee County,38.181477,-99.234772
20147,KS,Phillips County,39.784506,-99.34215
20149,KS,Pottawatomie County,39.382187,-96.337113
20151,KS,Pratt County,37.647594,-98.74012
20153,KS,Rawlins County,39.786198,-101.076738
20155,KS,Reno County,37.948185,-98.078346
20157,KS,Republic County,39.828906,-97.650883
20159,KS,Rice County,38.347178,-98.201415
20161,KS,Riley County,39.291211,-96.727489
20163,KS,Rooks County,39.346006,-99.324492
20165,KS,Rush County,38.523596,-99.309184
20167,KS,Russell County,38.91604,-98.770949
20169,KS,Saline County,38.791804,-97.651478
20171,KS,Scott County,38.481877,-100.90636
20173,KS,Sedgwick County,37.681045,-97.461054
20175,KS,Seward County,37.18096,-100.855257
20177,KS,Shawnee County,39.041805,-95.755664
20179,KS,Sheridan County,39.350547,-100.441228
20181,KS,Sherman County,39.351352,-101.719859
20183,KS,Smith County,39.78466,-98.785429
20185,KS,Stafford County,38.03563,-98.719889
20187,KS,Stanton County,37.565932,-101.789383
20189,KS,Stevens County,37.2017,-101.317268
20191,KS,Sumner County,37.236662,-97.493352
20193,KS,Thomas County,39.357713,-101.083386
20195,KS,Trego County,38.921302,-99.865423
20197,KS,Wabaunsee County,38.955154,-96.201262
20199,KS,Wallace County,38.926626,-101.771103
20201,KS,Washington County,39.776714,-97.095611
20203,KS,Wichita County,38.481922,-101.347434
20205,KS,Wilson County,37.558515,-95.745175
20207,KS,Woodson County,37.888193,-95.758469
20209,KS,Wyandotte County,39.115384,-94.763087
21001,KY,Adair County,37.105559,-85.28138
21003,KY,Allen County,36.75077,-86.192458
21005,KY,Anderson County,38.005396,-84.986417
21007,KY,Ballard County,37.051323,-89.010367
21009,KY,Barren County,36.962805,-85.932108
21011,KY,Bath County,38.152249,-83.737641
21013,KY,Bell County,36.728928,-83.680718
21015,KY,Boone County,38.9589,-84.736371
21017,KY,Bourbon County,38.202562,-84.20986
21019,KY,Boyd County,38.360004,-82.681406
21021,KY,Boyle County,37.618104,-84.868352
21023,KY,Bracken County,38.680365,-84.115235
21025,KY,Breathitt County,37.517807,-83.317158
21027,KY,Breckinridge County,37.777988,-86.432919
21029,KY,Bullitt County,37.969945,-85.702636
21031,KY,Butler County,37.207013,-86.682471
21033,KY,Caldwell County,37.148642,-87.870509
21035,KY,Calloway County,36.620978,-88.274086
21037,KY,Campbell County,38.946981,-84.379583
21039,KY,Carlisle County,36.85718,-88.976614
21041,KY,Carroll County,38.668394,-85.124024
21043,KY,Carter County,38.309549,-83.048796
21045,KY,Casey County,37.321962,-84.92822
21047,KY,Christian County,36.892059,-87.492986
21049,KY,Clark County,37.970314,-84.145115
21051,KY,Clay County,37.164273,-83.715473
21053,KY,Clinton County,36.727258,-85.136098
21055,KY,Crittenden County,37.358149,-88.10501
21057,KY,Cumberland County,36.782372,-85.388484
21059,KY,Daviess County,37.731671,-87.087139
21061,KY,Edmonson County,37.227514,-86.218015
21063,KY,Elliott County,38.116883,-83.096116
21065,KY,Estill County,37.692449,-83.963983
21067,KY,Fayette County,38.040675,-84.458274
21069,KY,Fleming County,38.367848,-83.699205
21071,KY,Floyd County,37.552456,-82.739724
21073,KY,Franklin County,38.234919,-84.868786
21075,KY,Fulton County,36.552511,-89.187659
21077,KY,Gallatin County,38.760103,-84.862153
21079,KY,Garrard County,37.630162,-84.545856
21081,KY,Grant County,38.649167,-84.625924
21083,KY,Graves County,36.723344,-88.649897
21085,KY,Grayson County,37.458577,-86.344011
21087,KY,Green County,37.275382,-85.578483
21089,KY,Greenup County,38.563562,-82.93382
21091,KY,Hancock County,37.843325,-86.792761
21093,KY,Hardin County,37.695836,-85.963183
21095,KY,Harlan County,36.859223,-83.221497
21097,KY,Harrison County,38.444578,-84.334131
21099,KY,Hart County,37.309097,-85.882123
21101,KY,Henderson County,37.792542,-87.572577
21103,KY,Henry County,38.451383,-85.119647
21105,KY,Hickman County,36.675896,-88.972084
21107,KY,Hopkins County,37.31107,-87.542196
21109,KY,Jackson County,37.403458,-84.020576
21111,KY,Jefferson County,38.189532,-85.657624
21113,KY,Jessamine County,37.873291,-84.58396
21115,KY,Johnson County,37.847756,-82.830121
21117,KY,Kenton County,38.930503,-84.533438
21119,KY,Knott County,37.354368,-82.952546
21121,KY,Knox County,36.8885,-83.855551
21123,KY,Larue County,37.544462,-85.696841
21125,KY,Laurel County,37.113268,-84.119395
21127,KY,Lawrence County,38.074453,-82.73829
21129,KY,Lee County,37.608116,-83.719248
21131,KY,Leslie County,37.087846,-83.388617
21133,KY,Letcher County,37.118536,-82.861251
21135,KY,Lewis County,38.535047,-83.370143
21137,KY,Lincoln County,37.457174,-84.658335
21139,KY,Livingston County,37.209517,-88.363426
21141,KY,Logan County,36.859607,-86.881288
21143,KY,Lyon County,37.023976,-88.083391
21145,KY,McCracken County,37.054111,-88.712454
21147,KY,McCreary County,36.731136,-84.491052
21149,KY,McLean County,37.526707,-87.265597
21151,KY,Madison County,37.725511,-84.278362
21153,KY,Magoffin County,37.698983,-83.069721
21155,KY,Marion County,37.552604,-85.268959
21157,KY,Marshall County,36.882017,-88.332752
21159,KY,Martin County,37.796774,-82.506623
21161,KY,Mason County,38.594137,-83.828125
21163,KY,Meade County,37.967476,-86.200863
21165,KY,Menifee County,37.935501,-83.589365
21167,KY,Mercer County,37.812085,-84.879695
21169,KY,Metcalfe County,36.99243,-85.633456
21171,KY,Monroe County,36.714077,-85.713508
21173,KY,Montgomery County,38.038109,-83.912416
21175,KY,Morgan County,37.92294,-83.258944
21177,KY,Muhlenberg County,37.213816,-87.134092
21179,KY,Nelson County,37.80312,-85.465931
21181,KY,Nicholas County,38.338031,-84.026223
21183,KY,Ohio County,37.477859,-86.844871
21185,KY,Oldham County,38.400127,-85.456152
21187,KY,Owen County,38.499395,-84.84159
21189,KY,Owsley County,37.423622,-83.691637
21191,KY,Pendleton County,38.696284,-84.351943
21193,KY,Perry County,37.241282,-83.217772
21195,KY,Pike County,37.486031,-82.410912
21197,KY,Powell County,37.809907,-83.831354
21199,KY,Pulaski County,37.107374,-84.576953
21201,KY,Robertson County,38.513473,-84.06423
21203,KY,Rockcastle County,37.36105,-84.314368
21205,KY,Rowan County,38.204266,-83.428079
21207,KY,Russell County,36.990587,-85.05495
21209,KY,Scott County,38.28571,-84.57834
21211,KY,Shelby County,38.239011,-85.228247
21213,KY,Simpson County,36.740937,-86.581793
21215,KY,Spencer County,38.025411,-85.317174
21217,KY,Taylor County,37.36621,-85.328059
21219,KY,Todd County,36.840338,-87.183642
21221,KY,Trigg County,36.807681,-87.858652
21223,KY,Trimble County,38.62004,-85.351208
21225,KY,Union County,37.658029,-87.95165
21227,KY,Warren County,36.995634,-86.423579
21229,KY,Washington County,37.754209,-85.175416
21231,KY,Wayne County,36.800772,-84.82659
21233,KY,Webster County,37.51946,-87.68479
21235,KY,Whitley County,36.758024,-84.144648
21237,KY,Wolfe County,37.743893,-83.49511
21239,KY,Woodford County,38.043103,-84.748855
22001,LA,Acadia Parish,30.291497,-92.411037
22003,LA,Allen Parish,30.652744,-92.819605
22005,LA,Ascension Parish,30.206444,-90.912502
22007,LA,Assumption Parish,29.898853,-91.052465
22009,LA,Avoyelles Parish,31.088503,-91.983275
22011,LA,Beauregard Parish,30.645018,-93.340253
22013,LA,Bienville Parish,32.340952,-93.041151
22015,LA,Bossier Parish,32.698481,-93.626561
22017,LA,Caddo Parish,32.577195,-93.882423
22019,LA,Calcasieu Parish,30.229559,-93.358015
22021,LA,Caldwell Parish,32.101219,-92.114231
22023,LA,Cameron Parish,29.871812,-93.164948
22025,LA,Catahoula Parish,31.666517,-91.846703
22027,LA,Claiborne Parish,32.82716,-92.989728
22029,LA,Concordia Parish,31.469805,-91.626315
22031,LA,De Soto Parish,32.059248,-93.740797
22033,LA,East Baton Rouge Parish,30.54393,-91.093131
22035,LA,East Carroll Parish,32.73017,-91.234141
22037,LA,East Feliciana Parish,30.839784,-91.043434
22039,LA,Evangeline Parish,30.720693,-92.404086
22041,LA,Franklin Parish,32.139076,-91.672371
22043,LA,Grant Parish,31.597787,-92.561716
22045,LA,Iberia Parish,30.007127,-91.976784
22047,LA,Iberville Parish,30.270628,-91.365848
22049,LA,Jackson Parish,32.30429,-92.5617
22051,LA,Jefferson Parish,29.522281,-90.081001
22053,LA,Jefferson Davis Parish,30.269529,-92.816221
22055,LA,Lafayette Parish,30.206507,-92.06417
22057,LA,Lafourche Parish,29.491992,-90.394849
22059,LA,LaSalle Parish,31.680083,-92.161596
22061,LA,Lincoln Parish,32.601823,-92.662303
22063,LA,Livingston Parish,30.440419,-90.727474
22065,LA,Madison Parish,32.346878,-91.231932
22067,LA,Morehouse Parish,32.820008,-91.800399
22069,LA,Natchitoches Parish,31.732551,-93.082611
22071,LA,Orleans Parish,30.05342,-89.934502
22073,LA,Ouachita Parish,32.480932,-92.151581
22075,LA,Plaquemines Parish,29.282447,-89.576068
22077,LA,Pointe Coupee Parish,30.708319,-91.604621
22079,LA,Rapides Parish,31.193204,-92.535953
22081,LA,Red River Parish,32.101213,-93.34905
22083,LA,Richland Parish,32.413158,-91.748353
22085,LA,Sabine Parish,31.560402,-93.559579
22087,LA,St. Bernard Parish,29.91811,-89.263494
22089,LA,St. Charles Parish,29.905722,-90.357855
22091,LA,St. Helena Parish,30.822539,-90.708307
22093,LA,St. James Parish,30.024777,-90.793956
22095,LA,St. John the Baptist Parish,30.144068,-90.49096
22097,LA,St. Landry Parish,30.583441,-91.989274
22099,LA,St. Martin Parish,30.121433,-91.611481
22101,LA,St. Mary Parish,29.629349,-91.463804
22103,LA,St. Tammany Parish,30.410022,-89.951962
22105,LA,Tangipahoa Parish,30.621531,-90.40663
22107,LA,Tensas Parish,32.001489,-91.342576
22109,LA,Terrebonne Parish,29.334130000000002,-90.843674
22111,LA,Union Parish,32.829349,-92.37565
22113,LA,Vermilion Parish,29.789722,-92.291568
22115,LA,Vernon Parish,31.110563,-93.18152
22117,LA,Washington Parish,30.852144,-90.046253
22119,LA,Webster Parish,32.732152,-93.339825
22121,LA,West Baton Rouge Parish,30.464052,-91.309808
22123,LA,West Carroll Parish,32.79248,-91.451998
22125,LA,West Feliciana Parish,30.872701,-91.421008
22127,LA,Winn Parish,31.941187,-92.641269
23001,ME,Androscoggin County,44.167681,-70.207435
23003,ME,Aroostook County,46.709193,-68.612409
23005,ME,Cumberland County,43.808348,-70.330375
23007,ME,Franklin County,44.976724,-70.414935
23009,ME,Hancock County,44.564906,-68.370703
23011,ME,Kennebec County,44.417012,-69.765764
23013,ME,Knox County,44.042045,-69.038514
23015,ME,Lincoln County,43.994781,-69.513624
23017,ME,Oxford County,44.4945,-70.734421
23019,ME,Penobscot County,45.409284,-68.666616
23021,ME,Piscataquis County,45.915639,-69.102231
23023,ME,Sagadahoc County,43.916845,-69.844227
23025,ME,Somerset County,45.503646,-69.95611
23027,ME,Waldo County,44.505834,-69.138952
23029,ME,Washington County,44.967009,-67.609354
23031,ME,York County,43.426019,-70.668425
24001,MD,Allegany County,39.612313,-78.703104
24003,MD,Anne Arundel County,38.991617,-76.560894
24005,MD,Baltimore County,39.443167,-76.616569
24009,MD,Calvert County,38.522719,-76.529762
24011,MD,Caroline County,38.871531,-75.831662
24013,MD,Carroll County,39.563331,-77.015328
24015,MD,Cecil County,39.562354,-75.941585
24017,MD,Charles County,38.472853,-77.015427
24019,MD,Dorchester County,38.429196,-76.047433
24021,MD,Frederick County,39.470214,-77.397628
24023,MD,Garrett County,39.547299,-79.274619
24025,MD,Harford County,39.537429,-76.299789
24027,MD,Howard County,39.252264,-76.924406
24029,MD,Kent County,39.241279,-76.125987
24031,MD,Montgomery County,39.137381,-77.203063
24033,MD,Prince George's County,38.829288,-76.84818
24035,MD,Queen Anne's County,39.040693,-76.082405
24037,MD,St. Mary's County,38.220289,-76.530384
24039,MD,Somerset County,38.07445,-75.853323
24041,MD,Talbot County,38.748349,-76.178476
24043,MD,Washington County,39.603621,-77.814671
24045,MD,Wicomico County,38.36737,-75.632083
24047,MD,Worcester County,38.222133,-75.309931
24510,MD,Baltimore city,39.300032,-76.610476
25001,MA,Barnstable County,41.799014,-70.21188
25003,MA,Berkshire County,42.371493,-73.217928
25005,MA,Bristol County,41.748588,-71.088894
25007,MA,Dukes County,41.38097,-70.701499
25009,MA,Essex County,42.642708,-70.864909
25011,MA,Franklin County,42.584504,-72.591792
25013,MA,Hampden County,42.136198,-72.635648
25015,MA,Hampshire County,42.339459,-72.663694
25017,MA,Middlesex County,42.481718,-71.394916
25019,MA,Nantucket County,41.305878,-70.14191
25021,MA,Norfolk County,42.171739,-71.181111
25023,MA,Plymouth County,41.987196,-70.741942
25025,MA,Suffolk County,42.338551,-71.018253
25027,MA,Worcester County,42.311693,-71.940282
26001,MI,Alcona County,44.682535,-82.834078
26003,MI,Alger County,47.080077,-86.564108
26005,MI,Allegan County,42.595787,-86.634745
26007,MI,Alpena County,44.894954,-83.426574
26009,MI,Antrim County,45.005455,-85.175639
26011,MI,Arenac County,44.036833,-83.740675
26013,MI,Baraga County,46.695859,-88.36181
26015,MI,Barry County,42.582811,-85.31455
26017,MI,Bay County,43.699711,-83.978701
26019,MI,Benzie County,44.648621,-86.494326
26021,MI,Berrien County,41.791382,-86.742543
26023,MI,Branch County,41.918455,-85.066885
26025,MI,Calhoun County,42.24299,-85.012385
26027,MI,Cass County,41.917243,-86.000142
26029,MI,Charlevoix County,45.513164,-85.450392
26031,MI,Cheboygan County,45.476022,-84.495431
26033,MI,Chippewa County,46.321819,-84.52063
26035,MI,Clare County,43.991137,-84.838325
26037,MI,Clinton County,42.950455,-84.591695
26039,MI,Crawford County,44.680175,-84.611343
26041,MI,Delta County,45.805229,-86.901938
26043,MI,Dickinson County,46.012825,-87.866123
26045,MI,Eaton County,42.58953,-84.84645
26047,MI,Emmet County,45.590094,-84.986822
26049,MI,Genesee County,43.021077,-83.706372
26051,MI,Gladwin County,43.98975,-84.389816
26053,MI,Gogebic County,46.461513,-89.806863
26055,MI,Grand Traverse County,44.718688,-85.553848
26057,MI,Gratiot County,43.292326,-84.60469
26059,MI,Hillsdale County,41.927461,-84.637479
26061,MI,Houghton County,46.998427,-88.651903
26063,MI,Huron County,43.907616,-82.857045
26065,MI,Ingham County,42.603534,-84.373811
26067,MI,Ionia County,42.94465,-85.073766
26069,MI,Iosco County,44.329482,-82.849444
26071,MI,Iron County,46.170254,-88.540526
26073,MI,Isabella County,43.645233,-84.839424
26075,MI,Jackson County,42.248474,-84.420868
26077,MI,Kalamazoo County,42.246266,-85.532854
26079,MI,Kalkaska County,44.678881,-85.088992
26081,MI,Kent County,43.032497,-85.547446
26083,MI,Keweenaw County,47.681974,-88.148797
26085,MI,Lake County,43.995187,-85.8114
26087,MI,Lapeer County,43.088633,-83.224325
26089,MI,Leelanau County,45.146182,-86.051574
26091,MI,Lenawee County,41.896022,-84.074356
26093,MI,Livingston County,42.602532,-83.911718
26095,MI,Luce County,46.940602,-85.582368
26097,MI,Mackinac County,46.167868,-85.303762
26099,MI,Macomb County,42.671553,-82.911456
26101,MI,Manistee County,44.350386,-86.602967
26103,MI,Marquette County,46.656596,-87.584028
26105,MI,Mason County,43.996636,-86.750814
26107,MI,Mecosta County,43.635295,-85.332751
26109,MI,Menominee County,45.536207,-87.501811
26111,MI,Midland County,43.648203,-84.379414
26113,MI,Missaukee County,44.325424,-85.085471
26115,MI,Monroe County,41.916097,-83.487106
26117,MI,Montcalm County,43.312782,-85.149468
26119,MI,Montmorency County,45.024134,-84.130107
26121,MI,Muskegon County,43.289258,-86.751892
26123,MI,Newaygo County,43.562712,-85.791372
26125,MI,Oakland County,42.660452,-83.38421
26127,MI,Oceana County,43.647255,-86.807575
26129,MI,Ogemaw County,44.33328,-84.128073
26131,MI,Ontonagon County,47.216602,-89.500463
26133,MI,Osceola County,43.997552,-85.322283
26135,MI,Oscoda County,44.687257,-84.126905
26137,MI,Otsego County,45.021787,-84.576603
26139,MI,Ottawa County,42.942461,-86.654946
26141,MI,Presque Isle County,45.489515,-83.384019
26143,MI,Roscommon County,44.339517,-84.611271
26145,MI,Saginaw County,43.328267,-84.05541
26147,MI,St. Clair County,42.928803,-82.668913
26149,MI,St. Joseph County,41.911488,-85.52287
26151,MI,Sanilac County,43.449155,-82.642815
26153,MI,Schoolcraft County,46.021122,-86.197029
26155,MI,Shiawassee County,42.951545,-84.146352
26157,MI,Tuscola County,43.487902,-83.436618
26159,MI,Van Buren County,42.28215,-86.306076
26161,MI,Washtenaw County,42.252217,-83.843423
26163,MI,Wayne County,42.284664,-83.261953
26165,MI,Wexford County,44.331375,-85.570046
27001,MN,Aitkin County,46.602446,-93.41976
27003,MN,Anoka County,45.27411,-93.242723
27005,MN,Becker County,46.937629,-95.741757
27007,MN,Beltrami County,47.879508,-95.00505
27009,MN,Benton County,45.701225,-94.00144
27011,MN,Big Stone County,45.419925,-96.402226
27013,MN,Blue Earth County,44.03371,-94.064012
27015,MN,Brown County,44.246541,-94.733647
27017,MN,Carlton County,46.603818,-92.671044
27019,MN,Carver County,44.82132,-93.800091
27021,MN,Cass County,46.951745,-94.333705
27023,MN,Chippewa County,45.028625,-95.564108
27025,MN,Chisago County,45.505444,-92.903849
27027,MN,Clay County,46.898376999999996,-96.494901
27029,MN,Clearwater County,47.575873,-95.371117
27031,MN,Cook County,47.538569,-90.290189
27033,MN,Cottonwood County,44.010639,-95.183152
27035,MN,Crow Wing County,46.491653,-94.070718
27037,MN,Dakota County,44.670893,-93.062481
27039,MN,Dodge County,44.020706,-92.869353
27041,MN,Douglas County,45.936829,-95.462156
27043,MN,Faribault County,43.676522,-93.947234
27045,MN,Fillmore County,43.679187,-92.093937
27047,MN,Freeborn County,43.674202,-93.350289
27049,MN,Goodhue County,44.406178,-92.716
27051,MN,Grant County,45.930743,-96.010699
27053,MN,Hennepin County,45.006121,-93.475228
27055,MN,Houston County,43.66699,-91.501556
27057,MN,Hubbard County,47.095551,-94.91329
27059,MN,Isanti County,45.562431,-93.296339
27061,MN,Itasca County,47.490817,-93.611102
27063,MN,Jackson County,43.671111,-95.149731
27065,MN,Kanabec County,45.94776,-93.297788
27067,MN,Kandiyohi County,45.152714,-95.004981
27069,MN,Kittson County,48.77604,-96.780349
27071,MN,Koochiching County,48.245374,-93.782896
27073,MN,Lac qui Parle County,44.999856,-96.176836
27075,MN,Lake County,47.517111,-91.411704
27077,MN,Lake of the Woods County,48.7681,-94.904633
27079,MN,Le Sueur County,44.373424,-93.730143
27081,MN,Lincoln County,44.408238,-96.272032
27083,MN,Lyon County,44.409195,-95.847268
27085,MN,McLeod County,44.821657,-94.272323
27087,MN,Mahnomen County,47.328387,-95.811089
27089,MN,Marshall County,48.362728,-96.357761
27091,MN,Martin County,43.677118,-94.537252
27093,MN,Meeker County,45.123155,-94.527346
27095,MN,Mille Lacs County,45.929043,-93.632996
27097,MN,Morrison County,46.020484,-94.266619
27099,MN,Mower County,43.666249,-92.759514
27101,MN,Murray County,44.015594,-95.761581
27103,MN,Nicollet County,44.35882,-94.245684
27105,MN,Nobles County,43.677686,-95.763132
27107,MN,Norman County,47.329453,-96.463776
27109,MN,Olmsted County,43.999499,-92.410099
27111,MN,Otter Tail County,46.405727,-95.714581
27113,MN,Pennington County,48.069247,-96.037725
27115,MN,Pine County,46.10094,-92.763094
27117,MN,Pipestone County,44.015361,-96.257015
27119,MN,Polk County,47.774254,-96.400027
27121,MN,Pope County,45.589623,-95.446705
27123,MN,Ramsey County,45.015204,-93.099965
27125,MN,Red Lake County,47.865487,-96.08718
27127,MN,Redwood County,44.403536,-95.254241
27129,MN,Renville County,44.723697,-94.955617
27131,MN,Rice County,44.350734,-93.298505
27133,MN,Rock County,43.669587,-96.263238
27135,MN,Roseau County,48.761068,-95.821504
27137,MN,St. Louis County,47.578635,-92.51457
27139,MN,Scott County,44.651805,-93.533731
27141,MN,Sherburne County,45.453176,-93.76913
27143,MN,Sibley County,44.575734,-94.230123
27145,MN,Stearns County,45.555235,-94.610482
27147,MN,Steele County,44.015261,-93.220453
27149,MN,Stevens County,45.593461,-95.992315
27151,MN,Swift County,45.27581,-95.690124
27153,MN,Todd County,46.066569,-94.900576
27155,MN,Traverse County,45.769935,-96.474832
27157,MN,Wabasha County,44.289693,-92.23334
27159,MN,Wadena County,46.586986,-94.988608
27161,MN,Waseca County,44.01846,-93.589844
27163,MN,Washington County,45.037929,-92.890117
27165,MN,Watonwan County,43.978109,-94.613798
27167,MN,Wilkin County,46.362335,-96.476657
27169,MN,Winona County,43.982268,-91.776708
27171,MN,Wright County,45.175091,-93.966396
27173,MN,Yellow Medicine County,44.715736,-95.862756
28001,MS,Adams County,31.486224,-91.351797
28003,MS,Alcorn County,34.886569,-88.581109
28005,MS,Amite County,31.203933,-90.795542
28007,MS,Attala County,33.090468,-89.588622
28009,MS,Benton County,34.810518,-89.200285
28011,MS,Bolivar County,33.799139,-90.88412
28013,MS,Calhoun County,33.936634,-89.337114
28015,MS,Carroll County,33.440795,-89.918887
28017,MS,Chickasaw County,33.933277,-88.947558
28019,MS,Choctaw County,33.345964,-89.251332
28021,MS,Claiborne County,31.97281,-90.915424
28023,MS,Clarke County,32.045374,-88.687976
28025,MS,Clay County,33.65967,-88.782468
28027,MS,Coahoma County,34.22867,-90.603165
28029,MS,Copiah County,31.866915,-90.448758
28031,MS,Covington County,31.633331,-89.548897
28033,MS,DeSoto County,34.874266,-89.99324
28035,MS,Forrest County,31.18858,-89.259447
28037,MS,Franklin County,31.477773,-90.895457
28039,MS,George County,30.855431,-88.642268
28041,MS,Greene County,31.212845,-88.634811
28043,MS,Grenada County,33.770031,-89.80274
28045,MS,Hancock County,30.391641,-89.482791
28047,MS,Harrison County,30.416536,-89.083376
28049,MS,Hinds County,32.267788,-90.466017
28051,MS,Holmes County,33.125942,-90.091197
28053,MS,Humphreys County,33.130996,-90.523421
28055,MS,Issaquena County,32.755539,-91.003535
28057,MS,Itawamba County,34.281075,-88.363127
28059,MS,Jackson County,30.456005,-88.625101
28061,MS,Jasper County,32.016989,-89.11943
28063,MS,Jefferson County,31.733633,-91.043878
28065,MS,Jefferson Davis County,31.564808,-89.827086
28067,MS,Jones County,31.616601,-89.168532
28069,MS,Kemper County,32.750136,-88.625631
28071,MS,Lafayette County,34.353078,-89.485385
28073,MS,Lamar County,31.197586,-89.506369
28075,MS,Lauderdale County,32.403998,-88.660449
28077,MS,Lawrence County,31.550009,-90.10753
28079,MS,Leake County,32.76063,-89.52225
28081,MS,Lee County,34.29237,-88.682439
28083,MS,Leflore County,33.54979,-90.294934
28085,MS,Lincoln County,31.535216,-90.453566
28087,MS,Lowndes County,33.471424,-88.439723
28089,MS,Madison County,32.63437,-90.03416
28091,MS,Marion County,31.230167,-89.821712
28093,MS,Marshall County,34.76619,-89.504231
28095,MS,Monroe County,33.89003,-88.485038
28097,MS,Montgomery County,33.500714,-89.639625
28099,MS,Neshoba County,32.752518,-89.119274
28101,MS,Newton County,32.40197,-89.118412
28103,MS,Noxubee County,33.106508,-88.566004
28105,MS,Oktibbeha County,33.422313,-88.876151
28107,MS,Panola County,34.365205,-89.963065
28109,MS,Pearl River County,30.774793,-89.586904
28111,MS,Perry County,31.169307,-88.988755
28113,MS,Pike County,31.177516,-90.397725
28115,MS,Pontotoc County,34.227081,-89.037239
28117,MS,Prentiss County,34.620566,-88.522184
28119,MS,Quitman County,34.252833,-90.290171
28121,MS,Rankin County,32.267123,-89.946063
28123,MS,Scott County,32.411959,-89.533486
28125,MS,Sharkey County,32.892395,-90.827613
28127,MS,Simpson County,31.902505,-89.917709
28129,MS,Smith County,32.019029,-89.494876
28131,MS,Stone County,30.790184,-89.112297
28133,MS,Sunflower County,33.605529,-90.59509
28135,MS,Tallahatchie County,33.954529,-90.172243
28137,MS,Tate County,34.649553,-89.943105
28139,MS,Tippah County,34.763618,-88.918819
28141,MS,Tishomingo County,34.737697,-88.236064
28143,MS,Tunica County,34.652201,-90.37177
28145,MS,Union County,34.489533,-89.002339
28147,MS,Walthall County,31.164492,-90.103431
28149,MS,Warren County,32.356095,-90.852384
28151,MS,Washington County,33.273174,-90.944446
28153,MS,Wayne County,31.642503,-88.678214
28155,MS,Webster County,33.612061,-89.283961
28157,MS,Wilkinson County,31.161091,-91.324617
28159,MS,Winston County,33.078724,-89.037391
28161,MS,Yalobusha County,34.030666,-89.703807
28163,MS,Yazoo County,32.765675,-90.387928
29001,MO,Adair County,40.190666,-92.603592
29003,MO,Andrew County,39.988863,-94.803551
29005,MO,Atchison County,40.431846,-95.437555
29007,MO,Audrain County,39.214481,-91.843418
29009,MO,Barry County,36.699376,-93.834334
29011,MO,Barton County,37.500799,-94.344089
29013,MO,Bates County,38.257217,-94.339246
29015,MO,Benton County,38.301036,-93.287942
29017,MO,Bollinger County,37.318427,-90.024645
29019,MO,Boone County,38.989861,-92.310202
29021,MO,Buchanan County,39.660369,-94.808173
29023,MO,Butler County,36.71518,-90.40313
29025,MO,Caldwell County,39.658998,-93.979179
29027,MO,Callaway County,38.835547,-91.923446
29029,MO,Camden County,38.026527,-92.765327
29031,MO,Cape Girardeau County,37.384141,-89.685658
29033,MO,Carroll County,39.427375,-93.500227
29035,MO,Carter County,36.944857999999996,-90.945705
29037,MO,Cass County,38.646474,-94.354547
29039,MO,Cedar County,37.733655,-93.850014
29041,MO,Chariton County,39.517968,-92.96162
29043,MO,Christian County,36.969739,-93.187614
29045,MO,Clark County,40.407275,-91.729472
29047,MO,Clay County,39.315551,-94.421502
29049,MO,Clinton County,39.608723,-94.395803
29051,MO,Cole County,38.503233,-92.280027
29053,MO,Cooper County,38.845386,-92.812323
29055,MO,Crawford County,37.96656,-91.313933
29057,MO,Dade County,37.43235,-93.854878
29059,MO,Dallas County,37.683583,-93.033815
29061,MO,Daviess County,39.962839,-93.970053
29063,MO,DeKalb County,39.894665,-94.40719
29065,MO,Dent County,37.603072,-91.489717
29067,MO,Douglas County,36.946517,-92.515892
29069,MO,Dunklin County,36.306905,-90.065394
29071,MO,Franklin County,38.413003,-91.072832
29073,MO,Gasconade County,38.441183,-91.50578
29075,MO,Gentry County,40.208127,-94.405321
29077,MO,Greene County,37.258196,-93.340641
29079,MO,Grundy County,40.112541,-93.565054
29081,MO,Harrison County,40.34562,-93.992582
29083,MO,Henry County,38.386491,-93.792628
29085,MO,Hickory County,37.93691,-93.322988
29087,MO,Holt County,40.095724,-95.219072
29089,MO,Howard County,39.143365,-92.695926
29091,MO,Howell County,36.774369,-91.887368
29093,MO,Iron County,37.594364,-90.984682
29095,MO,Jackson County,39.005336,-94.343165
29097,MO,Jasper County,37.205197,-94.337259
29099,MO,Jefferson County,38.25763,-90.543681
29101,MO,Johnson County,38.741528,-93.811863
29103,MO,Knox County,40.136856,-92.146835
29105,MO,Laclede County,37.659698,-92.594843
29107,MO,Lafayette County,39.068705,-93.802639
29109,MO,Lawrence County,37.10659,-93.830551
29111,MO,Lewis County,40.084559,-91.728803
29113,MO,Lincoln County,39.062255,-90.962916
29115,MO,Linn County,39.86444,-93.108019
29117,MO,Livingston County,39.778587,-93.548201
29119,MO,McDonald County,36.630218,-94.343956
29121,MO,Macon County,39.829795,-92.56434
29123,MO,Madison County,37.474481,-90.343413
29125,MO,Maries County,38.162615,-91.923601
29127,MO,Marion County,39.807538,-91.635379
29129,MO,Mercer County,40.421413,-93.567631
29131,MO,Miller County,38.21668,-92.429876
29133,MO,Mississippi County,36.826264,-89.295929
29135,MO,Moniteau County,38.633037,-92.583642
29137,MO,Monroe County,39.49827,-92.006458
29139,MO,Montgomery County,38.935184,-91.465427
29141,MO,Morgan County,38.420806,-92.874835
29143,MO,New Madrid County,36.594261,-89.655948
29145,MO,Newton County,36.908371,-94.335034
29147,MO,Nodaway County,40.361136,-94.883146
29149,MO,Oregon County,36.68531,-91.401827
29151,MO,Osage County,38.464253,-91.859504
29153,MO,Ozark County,36.64959,-92.458549
29155,MO,Pemiscot County,36.209916,-89.785942
29157,MO,Perry County,37.71113,-89.802125
29159,MO,Pettis County,38.727367,-93.285207
29161,MO,Phelps County,37.866326,-91.790349
29163,MO,Pike County,39.339959,-91.171607
29165,MO,Platte County,39.378696,-94.761472
29167,MO,Polk County,37.616761,-93.400817
29169,MO,Pulaski County,37.824835,-92.207022
29171,MO,Putnam County,40.478606,-93.014531
29173,MO,Ralls County,39.553455,-91.524787
29175,MO,Randolph County,39.439249,-92.492959
29177,MO,Ray County,39.308401,-93.995746
29179,MO,Reynolds County,37.366464,-90.972282
29181,MO,Ripley County,36.65017,-90.874834
29183,MO,St. Charles County,38.781102,-90.674915
29185,MO,St. Clair County,38.04223,-93.77656
29186,MO,Ste. Genevieve County,37.885845,-90.161531
29187,MO,St. Francois County,37.810707,-90.473868
29189,MO,St. Louis County,38.640688,-90.446073
29195,MO,Saline County,39.13584,-93.204164
29197,MO,Schuyler County,40.469361,-92.519016
29199,MO,Scotland County,40.447686,-92.142824
29201,MO,Scott County,37.047793,-89.568098
29203,MO,Shannon County,37.152498,-91.391328
29205,MO,Shelby County,39.797531,-92.088719
29207,MO,Stoddard County,36.851557,-89.947481
29209,MO,Stone County,36.751004,-93.473701
29211,MO,Sullivan County,40.209587,-93.109783
29213,MO,Taney County,36.649827,-93.042819
29215,MO,Texas County,37.314257,-91.964478
29217,MO,Vernon County,37.850196,-94.341597
29219,MO,Warren County,38.761902,-91.159306
29221,MO,Washington County,37.942611,-90.897018
29223,MO,Wayne County,37.111074,-90.453931
29225,MO,Webster County,37.280804,-92.87608
29227,MO,Worth County,40.480499,-94.419198
29229,MO,Wright County,37.267633000000004,-92.479989
29510,MO,St. Louis city,38.635699,-90.244582
30001,MT,Beaverhead County,45.133863,-112.892869
30003,MT,Big Horn County,45.407869,-107.518163
30005,MT,Blaine County,48.428282,-108.967648
30007,MT,Broadwater County,46.329849,-111.497873
30009,MT,Carbon County,45.224468,-109.028554
30011,MT,Carter County,45.516825,-104.515324
30013,MT,Cascade County,47.316575,-111.350262
30015,MT,Chouteau County,47.886834,-110.4362
30017,MT,Custer County,46.261414,-105.550352
30019,MT,Daniels County,48.794429,-105.541739
30021,MT,Dawson County,47.26613,-104.898271
30023,MT,Deer Lodge County,46.094672,-113.141624
30025,MT,Fallon County,46.318184,-104.405718
30027,MT,Fergus County,47.225221,-109.232138
30029,MT,Flathead County,48.314678,-114.054295
30031,MT,Gallatin County,45.518054,-111.163921
30033,MT,Garfield County,47.267184,-106.995991
30035,MT,Glacier County,48.705671,-112.990502
30037,MT,Golden Valley County,46.380624,-109.174586
30039,MT,Granite County,46.395955,-113.427356
30041,MT,Hill County,48.631959,-110.106321
30043,MT,Jefferson County,46.124232,-112.059428
30045,MT,Judith Basin County,47.032558,-110.30532
30047,MT,Lake County,47.642901,-114.083687
30049,MT,Lewis and Clark County,47.132013,-112.373367
30051,MT,Liberty County,48.559654,-111.036924
30053,MT,Lincoln County,48.552385,-115.463185
30055,MT,McCone County,47.629628,-105.757222
30057,MT,Madison County,45.32529,-111.913791
30059,MT,Meagher County,46.5857,-110.92174
30061,MT,Mineral County,47.151942,-115.065627
30063,MT,Missoula County,47.027263,-113.892691
30065,MT,Musselshell County,46.505281,-108.439763
30067,MT,Park County,45.421429,-110.53276
30069,MT,Petroleum County,47.141917,-108.226575
30071,MT,Phillips County,48.250143,-107.928897
30073,MT,Pondera County,48.228604,-112.220761
30075,MT,Powder River County,45.408926,-105.555344
30077,MT,Powell County,46.844225,-112.9311
30079,MT,Prairie County,46.812384,-105.503994
30081,MT,Ravalli County,46.077744,-114.105795
30083,MT,Richland County,47.785633,-104.563408
30085,MT,Roosevelt County,48.282747,-104.99517
30087,MT,Rosebud County,46.173233,-106.666746
30089,MT,Sanders County,47.756497,-115.180306
30091,MT,Sheridan County,48.705523,-104.533913
30093,MT,Silver Bow County,45.896232,-112.660071
30095,MT,Stillwater County,45.658545,-109.381576
30097,MT,Sweet Grass County,45.811292,-109.944796
30099,MT,Teton County,47.819035,-112.281725
30101,MT,Toole County,48.645125,-111.733472
30103,MT,Treasure County,46.229441,-107.285772
30105,MT,Valley County,48.34985,-106.670424
30107,MT,Wheatland County,46.497047,-109.857147
30109,MT,Wibaux County,46.962966,-104.274518
30111,MT,Yellowstone County,45.936987,-108.276656
31001,NE,Adams County,40.520632,-98.500044
31003,NE,Antelope County,42.183225,-98.058037
31005,NE,Arthur County,41.57193,-101.695917
31007,NE,Banner County,41.53975,-103.726263
31009,NE,Blaine County,41.931945,-99.996407
31011,NE,Boone County,41.703934,-98.070476
31013,NE,Box Butte County,42.21038,-103.081779
31015,NE,Boyd County,42.894448,-98.773022
31017,NE,Brown County,42.359562,-99.92392
31019,NE,Buffalo County,40.855226,-99.074983
31021,NE,Burt County,41.854179,-96.337746
31023,NE,Butler County,41.226072,-97.132039
31025,NE,Cass County,40.909878,-96.140609
31027,NE,Cedar County,42.60456,-97.25687
31029,NE,Chase County,40.53039,-101.694192
31031,NE,Cherry County,42.571323,-101.047653
31033,NE,Cheyenne County,41.214236,-103.011929
31035,NE,Clay County,40.523669,-98.050858
31037,NE,Colfax County,41.57496,-97.088945
31039,NE,Cuming County,41.915865,-96.788517
31041,NE,Custer County,41.393893,-99.726866
31043,NE,Dakota County,42.391645,-96.561356
31045,NE,Dawes County,42.711214,-103.134872
31047,NE,Dawson County,40.867378,-99.815154
31049,NE,Deuel County,41.111903,-102.332609
31051,NE,Dixon County,42.48528,-96.855862
31053,NE,Dodge County,41.577008,-96.645853
31055,NE,Douglas County,41.297091,-96.154066
31057,NE,Dundy County,40.180165,-101.681133
31059,NE,Fillmore County,40.52504,-97.596705
31061,NE,Franklin County,40.183203,-98.96208
31063,NE,Frontier County,40.530947,-100.406683
31065,NE,Furnas County,40.191865,-99.909663
31067,NE,Gage County,40.255234,-96.683453
31069,NE,Garden County,41.633364,-102.302985
31071,NE,Garfield County,41.906868,-98.951231
31073,NE,Gosper County,40.509095,-99.823206
31075,NE,Grant County,41.913956999999996,-101.755965
31077,NE,Greeley County,41.567571,-98.530565
31079,NE,Hall County,40.866027,-98.502664
31081,NE,Hamilton County,40.872817,-98.022329
31083,NE,Harlan County,40.178766,-99.403418
31085,NE,Hayes County,40.537234,-101.047963
31087,NE,Hitchcock County,40.176896,-101.044217
31089,NE,Holt County,42.459287,-98.784766
31091,NE,Hooker County,41.920317,-101.117324
31093,NE,Howard County,41.216851,-98.513342
31095,NE,Jefferson County,40.175736,-97.143103
31097,NE,Johnson County,40.39501,-96.265367
31099,NE,Kearney County,40.50912,-98.947602
31101,NE,Keith County,41.194245,-101.644449
31103,NE,Keya Paha County,42.87548,-99.718351
31105,NE,Kimball County,41.199274,-103.703153
31107,NE,Knox County,42.634404,-97.891349
31109,NE,Lancaster County,40.783547,-96.688658
31111,NE,Lincoln County,41.050322,-100.744481
31113,NE,Logan County,41.542155,-100.443665
31115,NE,Loup County,41.903183,-99.509852
31117,NE,McPherson County,41.648414,-101.120851
31119,NE,Madison County,41.909929,-97.606856
31121,NE,Merrick County,41.16979,-98.031057
31123,NE,Morrill County,41.732204,-102.990594
31125,NE,Nance County,41.402385,-97.991408
31127,NE,Nemaha County,40.387389,-95.852721
31129,NE,Nuckolls County,40.176492,-98.046842
31131,NE,Otoe County,40.637992,-96.131027
31133,NE,Pawnee County,40.13785,-96.245225
31135,NE,Perkins County,40.857646,-101.627468
31137,NE,Phelps County,40.516365,-99.406557
31139,NE,Pierce County,42.271413,-97.610992
31141,NE,Platte County,41.576866,-97.513467
31143,NE,Polk County,41.187925,-97.570663
31145,NE,Red Willow County,40.16942,-100.468576
31147,NE,Richardson County,40.123743,-95.718603
31149,NE,Rock County,42.394749,-99.420851
31151,NE,Saline County,40.516802,-97.131755
31153,NE,Sarpy County,41.115064,-96.109125
31155,NE,Saunders County,41.223388,-96.642097
31157,NE,Scotts Bluff County,41.850331,-103.701549
31159,NE,Seward County,40.871944,-97.140383
31161,NE,Sheridan County,42.512289,-102.36828
31163,NE,Sherman County,41.218743,-98.972849
31165,NE,Sioux County,42.470668,-103.73217
31167,NE,Stanton County,41.905045,-97.177109
31169,NE,Thayer County,40.173845,-97.596263
31171,NE,Thomas County,41.85573,-100.524703
31173,NE,Thurston County,42.154061,-96.533943
31175,NE,Valley County,41.564094,-98.983484
31177,NE,Washington County,41.533973,-96.224577
31179,NE,Wayne County,42.210746,-97.126243
31181,NE,Webster County,40.180646,-98.49859
31183,NE,Wheeler County,41.922575,-98.520853
31185,NE,York County,40.873056,-97.596742
32001,NV,Churchill County,39.53771,-118.264166
32003,NV,Clark County,36.214257,-115.013812
32005,NV,Douglas County,38.905129,-119.609019
32007,NV,Elko County,41.141133,-115.351424
32009,NV,Esmeralda County,37.778966,-117.632382
32011,NV,Eureka County,39.977788,-116.272208
32013,NV,Humboldt County,41.407914,-118.127591
32015,NV,Lander County,39.90021,-117.04724
32017,NV,Lincoln County,37.634605,-114.863037
32019,NV,Lyon County,39.022213,-119.197425
32021,NV,Mineral County,38.516647,-118.416279
32023,NV,Nye County,37.965864,-116.459011
32027,NV,Pershing County,40.439639,-118.409477
32029,NV,Storey County,39.438385,-119.524646
32031,NV,Washoe County,40.73132,-119.663269
32033,NV,White Pine County,39.418234,-114.900605
32510,NV,Carson City,39.15306,-119.747368
33001,NH,Belknap County,43.519109,-71.425366
33003,NH,Carroll County,43.867774,-71.20156
33005,NH,Cheshire County,42.92546,-72.248183
33007,NH,Coos County,44.652548,-71.289431
33009,NH,Grafton County,43.926439,-71.842424
33011,NH,Hillsborough County,42.911532,-71.723055
33013,NH,Merrimack County,43.299579,-71.680041
33015,NH,Rockingham County,42.988664,-71.09908
33017,NH,Strafford County,43.293272,-71.035589
33019,NH,Sullivan County,43.361188,-72.222084
34001,NJ,Atlantic County,39.469355,-74.633759
34003,NJ,Bergen County,40.959698,-74.074727
34005,NJ,Burlington County,39.875786,-74.663006
34007,NJ,Camden County,39.802407,-74.961249
34009,NJ,Cape May County,39.085841,-74.846354
34011,NJ,Cumberland County,39.328434,-75.121628
34013,NJ,Essex County,40.7874,-74.246292
34015,NJ,Gloucester County,39.722875,-75.145679
34017,NJ,Hudson County,40.731375,-74.078601
34019,NJ,Hunterdon County,40.565283,-74.911969
34021,NJ,Mercer County,40.282503,-74.703724
34023,NJ,Middlesex County,40.439621,-74.40743
34025,NJ,Monmouth County,40.287048,-74.152446
34027,NJ,Morris County,40.858896,-74.547292
34029,NJ,Ocean County,39.865669,-74.258864
34031,NJ,Passaic County,41.03789,-74.29828
34033,NJ,Salem County,39.573828,-75.357356
34035,NJ,Somerset County,40.565527,-74.619938
34037,NJ,Sussex County,41.137461,-74.691914
34039,NJ,Union County,40.659871,-74.308696
34041,NJ,Warren County,40.853491,-75.009498
35001,NM,Bernalillo County,35.053628,-106.66908
35003,NM,Catron County,33.901621,-108.391928
35005,NM,Chaves County,33.361604,-104.469837
35006,NM,Cibola County,34.928272,-107.99268000000001
35007,NM,Colfax County,36.612964,-104.64011
35009,NM,Curry County,34.572984,-103.346055
35011,NM,De Baca County,34.359273,-104.368696
35013,NM,Doa Ana County,32.349919,-106.834968
35015,NM,Eddy County,32.457835,-104.306434
35017,NM,Grant County,32.732087,-108.381504
35019,NM,Guadalupe County,34.869782,-104.784968
35021,NM,Harding County,35.858516,-103.847925
35023,NM,Hidalgo County,31.898052,-108.751929
35025,NM,Lea County,32.795687,-103.413271
35027,NM,Lincoln County,33.740841,-105.449805
35028,NM,Los Alamos County,35.870047,-106.307968
35029,NM,Luna County,32.184523,-107.747191
35031,NM,McKinley County,35.583878,-108.253266
35033,NM,Mora County,35.982841,-104.921898
35035,NM,Otero County,32.615599,-105.751308
35037,NM,Quay County,35.107018,-103.548071
35039,NM,Rio Arriba County,36.509669,-106.693983
35041,NM,Roosevelt County,34.021207,-103.483004
35043,NM,Sandoval County,35.685091,-106.883119
35045,NM,San Juan County,36.511624,-108.324578
35047,NM,San Miguel County,35.476859,-104.803519
35049,NM,Santa Fe County,35.51453,-105.963972
35051,NM,Sierra County,33.119468,-107.188161
35053,NM,Socorro County,33.991658,-106.939136
35055,NM,Taos County,36.576529,-105.637986
35057,NM,Torrance County,34.554978,-105.890557
35059,NM,Union County,36.488085,-103.475723
35061,NM,Valencia County,34.71684,-106.806582
36001,NY,Albany County,42.58824,-73.97401
36003,NY,Allegany County,42.247853,-78.026153
36005,NY,Bronx County,40.848711,-73.852939
36007,NY,Broome County,42.161977,-75.830283
36009,NY,Cattaraugus County,42.239099,-78.662332
36011,NY,Cayuga County,43.008546,-76.574587
36013,NY,Chautauqua County,42.304216,-79.407595
36015,NY,Chemung County,42.15528,-76.747179
36017,NY,Chenango County,42.478024,-75.602241
36019,NY,Clinton County,44.752712,-73.705643
36021,NY,Columbia County,42.247729,-73.626806
36023,NY,Cortland County,42.594039,-76.07624
36025,NY,Delaware County,42.193986,-74.966728
36027,NY,Dutchess County,41.75477,-73.740041
36029,NY,Erie County,42.752759,-78.778192
36031,NY,Essex County,44.109601,-73.778431
36033,NY,Franklin County,44.594376,-74.31067
36035,NY,Fulton County,43.115609,-74.423678
36037,NY,Genesee County,43.00091,-78.192778
36039,NY,Greene County,42.279821,-74.142025
36041,NY,Hamilton County,43.657879,-74.502456
36043,NY,Herkimer County,43.407489,-75.011683
36045,NY,Jefferson County,43.996389,-76.052968
36047,NY,Kings County,40.635045,-73.95064
36049,NY,Lewis County,43.782681,-75.44414
36051,NY,Livingston County,42.727485,-77.769779
36053,NY,Madison County,42.910026,-75.663575
36055,NY,Monroe County,43.464484,-77.664658
36057,NY,Montgomery County,42.900891,-74.435357
36059,NY,Nassau County,40.729612,-73.589414
36061,NY,New York County,40.776642,-73.970187
36063,NY,Niagara County,43.456731,-78.792142
36065,NY,Oneida County,43.242727,-75.434282
36067,NY,Onondaga County,43.006516,-76.196134
36069,NY,Ontario County,42.856357,-77.303497
36071,NY,Orange County,41.40241,-74.306252
36073,NY,Orleans County,43.502287,-78.229726
36075,NY,Oswego County,43.461443,-76.209262
36077,NY,Otsego County,42.629776,-75.028841
36079,NY,Putnam County,41.427907,-73.743861
36081,NY,Queens County,40.658566,-73.838017
36083,NY,Rensselaer County,42.710421,-73.513845
36085,NY,Richmond County,40.561263,-74.1399
36087,NY,Rockland County,41.154628,-74.024662
36089,NY,St. Lawrence County,44.488112,-75.074311
36091,NY,Saratoga County,43.106135,-73.855387
36093,NY,Schenectady County,42.817552,-74.043559
36095,NY,Schoharie County,42.591294,-74.438172
36097,NY,Schuyler County,42.419776,-76.938603
36099,NY,Seneca County,42.782294,-76.827088
36101,NY,Steuben County,42.266725,-77.385525
36103,NY,Suffolk County,40.943554,-72.692218
36105,NY,Sullivan County,41.719993,-74.771577
36107,NY,Tioga County,42.178057,-76.297456
36109,NY,Tompkins County,42.453006,-76.473483
36111,NY,Ulster County,41.947212,-74.265458
36113,NY,Warren County,43.555105,-73.838139
36115,NY,Washington County,43.312377,-73.439428
36117,NY,Wayne County,43.458758,-77.063164
36119,NY,Westchester County,41.152686,-73.745753
36121,NY,Wyoming County,42.701363,-78.228567
36123,NY,Yates County,42.638237,-77.104324
37001,NC,Alamance County,36.043954,-79.400573
37003,NC,Alexander County,35.920951,-81.177467
37005,NC,Alleghany County,36.489356,-81.132299
37007,NC,Anson County,34.974972,-80.109763
37009,NC,Ashe County,36.443469,-81.499334
37011,NC,Avery County,36.07209,-81.920285
37013,NC,Beaufort County,35.482313,-76.842014
37015,NC,Bertie County,36.059043,-76.962364
37017,NC,Bladen County,34.591938,-78.539489
37019,NC,Brunswick County,34.038754,-78.227765
37021,NC,Buncombe County,35.609371,-82.530423
37023,NC,Burke County,35.746182,-81.70618
37025,NC,Cabarrus County,35.388346,-80.552728
37027,NC,Caldwell County,35.966395,-81.512541
37029,NC,Camden County,36.342344,-76.162488
37031,NC,Carteret County,34.858343,-76.53586
37033,NC,Caswell County,36.394298,-79.339609
37035,NC,Catawba County,35.661883,-81.214906
37037,NC,Chatham County,35.704994,-79.251454
37039,NC,Cherokee County,35.13715,-84.061449
37041,NC,Chowan County,36.128979,-76.602752
37043,NC,Clay County,35.052997,-83.752264
37045,NC,Cleveland County,35.33463,-81.557114
37047,NC,Columbus County,34.261602,-78.639308
37049,NC,Craven County,35.116829,-77.08132
37051,NC,Cumberland County,35.050192,-78.828719
37053,NC,Currituck County,36.372174,-75.941224
37055,NC,Dare County,35.606269,-75.767536
37057,NC,Davidson County,35.795131,-80.207107
37059,NC,Davie County,35.929355,-80.542552
37061,NC,Duplin County,34.934403,-77.933543
37063,NC,Durham County,36.033828,-78.878125
37065,NC,Edgecombe County,35.917077,-77.602742
37067,NC,Forsyth County,36.132466,-80.256961
37069,NC,Franklin County,36.088241,-78.28309
37071,NC,Gaston County,35.293344,-81.177256
37073,NC,Gates County,36.442135,-76.702355
37075,NC,Graham County,35.348364,-83.830915
37077,NC,Granville County,36.299884,-78.657634
37079,NC,Greene County,35.481959,-77.681688
37081,NC,Guilford County,36.079065,-79.788665
37083,NC,Halifax County,36.251438,-77.644842
37085,NC,Harnett County,35.368635,-78.87161
37087,NC,Haywood County,35.558882,-82.981307
37089,NC,Henderson County,35.336415,-82.479741
37091,NC,Hertford County,36.363517,-76.981616
37093,NC,Hoke County,35.017233,-79.241964
37095,NC,Hyde County,35.408157,-76.153687
37097,NC,Iredell County,35.806249,-80.87452
37099,NC,Jackson County,35.281052,-83.119962
37101,NC,Johnston County,35.513419,-78.367348
37103,NC,Jones County,35.032268,-77.356195
37105,NC,Lee County,35.476336,-79.172117
37107,NC,Lenoir County,35.240068,-77.63551
37109,NC,Lincoln County,35.488491,-81.226892
37111,NC,McDowell County,35.682271,-82.048044
37113,NC,Macon County,35.152959,-83.421901
37115,NC,Madison County,35.864207,-82.71263
37117,NC,Martin County,35.847301,-77.119602
37119,NC,Mecklenburg County,35.246862,-80.833832
37121,NC,Mitchell County,36.013102,-82.163554
37123,NC,Montgomery County,35.334415,-79.906602
37125,NC,Moore County,35.308272,-79.492725
37127,NC,Nash County,35.965945,-77.987555
37129,NC,New Hanover County,34.183442,-77.864209
37131,NC,Northampton County,36.421774,-77.398352
37133,NC,Onslow County,34.763109,-77.499469
37135,NC,Orange County,36.062526,-79.120034
37137,NC,Pamlico County,35.147575,-76.665268
37139,NC,Pasquotank County,36.265199,-76.260691
37141,NC,Pender County,34.512556000000004,-77.888106
37143,NC,Perquimans County,36.180897,-76.403244
37145,NC,Person County,36.38635,-78.965623
37147,NC,Pitt County,35.59249,-77.372739
37149,NC,Polk County,35.277901,-82.167621
37151,NC,Randolph County,35.709915,-79.806215
37153,NC,Richmond County,35.004636,-79.755695
37155,NC,Robeson County,34.63921,-79.100881
37157,NC,Rockingham County,36.381806,-79.782754
37159,NC,Rowan County,35.641355,-80.521721
37161,NC,Rutherford County,35.402747,-81.919582
37163,NC,Sampson County,34.989298,-78.371174
37165,NC,Scotland County,34.840023,-79.477337
37167,NC,Stanly County,35.310449,-80.254374
37169,NC,Stokes County,36.393505,-80.266214
37171,NC,Surry County,36.415416,-80.686463
37173,NC,Swain County,35.568849,-83.465614
37175,NC,Transylvania County,35.210103,-82.816666
37177,NC,Tyrrell County,35.87042,-76.165345
37179,NC,Union County,34.99182,-80.530426
37181,NC,Vance County,36.365481,-78.405434
37183,NC,Wake County,35.789846,-78.650624
37185,NC,Warren County,36.398105,-78.099899
37187,NC,Washington County,35.844713,-76.572291
37189,NC,Watauga County,36.235368,-81.709888
37191,NC,Wayne County,35.35419,-78.00867
37193,NC,Wilkes County,36.208883,-81.166095
37195,NC,Wilson County,35.700357,-77.921598
37197,NC,Yadkin County,36.158765,-80.665164
37199,NC,Yancey County,35.889326,-82.303954
38001,ND,Adams County,46.096815,-102.533198
38003,ND,Barnes County,46.94255,-98.070195
38005,ND,Benson County,48.071743,-99.351152
38007,ND,Billings County,47.007044,-103.364016
38009,ND,Bottineau County,48.794412,-100.831257
38011,ND,Bowman County,46.110144,-103.505943
38013,ND,Burke County,48.786453,-102.520087
38015,ND,Burleigh County,46.978829,-100.469533
38017,ND,Cass County,46.927003,-97.252375
38019,ND,Cavalier County,48.768439,-98.46379
38021,ND,Dickey County,46.107756,-98.496518
38023,ND,Divide County,48.814754,-103.509326
38025,ND,Dunn County,47.354557,-102.612322
38027,ND,Eddy County,47.723436,-98.900474
38029,ND,Emmons County,46.284255,-100.237842
38031,ND,Foster County,47.471431,-98.872876
38033,ND,Golden Valley County,46.938924,-103.844612
38035,ND,Grand Forks County,47.926003,-97.450851
38037,ND,Grant County,46.357827,-101.639049
38039,ND,Griggs County,47.456334,-98.232286
38041,ND,Hettinger County,46.435704,-102.454238
38043,ND,Kidder County,46.938273,-99.731198
38045,ND,LaMoure County,46.464195,-98.526057
38047,ND,Logan County,46.469278,-99.504585
38049,ND,McHenry County,48.233842,-100.633267
38051,ND,McIntosh County,46.108682,-99.416487
38053,ND,McKenzie County,47.742475,-103.403215
38055,ND,McLean County,47.530459,-101.353087
38057,ND,Mercer County,47.307147,-101.833328
38059,ND,Morton County,46.710819,-101.298265
38061,ND,Mountrail County,48.210073,-102.364895
38063,ND,Nelson County,47.918667,-98.204428
38065,ND,Oliver County,47.118079,-101.33142
38067,ND,Pembina County,48.766896,-97.545405
38069,ND,Pierce County,48.238883,-99.966497
38071,ND,Ramsey County,48.266163,-98.739031
38073,ND,Ransom County,46.449276,-97.647554
38075,ND,Renville County,48.712781,-101.658152
38077,ND,Richland County,46.265219,-96.93796
38079,ND,Rolette County,48.768271,-99.840463
38081,ND,Sargent County,46.108204,-97.630051
38083,ND,Sheridan County,47.581359,-100.330986
38085,ND,Sioux County,46.110618,-101.061284
38087,ND,Slope County,46.445834,-103.462462
38089,ND,Stark County,46.817031,-102.662026
38091,ND,Steele County,47.451062,-97.71892
38093,ND,Stutsman County,46.972223,-98.956123
38095,ND,Towner County,48.682183,-99.248158
38097,ND,Traill County,47.446215,-97.164754
38099,ND,Walsh County,48.376979,-97.72223
38101,ND,Ward County,48.216686,-101.540537
38103,ND,Wells County,47.580851,-99.682213
38105,ND,Williams County,48.355765,-103.501333
39001,OH,Adams County,38.834468,-83.478082
39003,OH,Allen County,40.771627,-84.106103
39005,OH,Ashland County,40.843272999999996,-82.270127
39007,OH,Ashtabula County,41.906637,-80.745592
39009,OH,Athens County,39.332604,-82.045844
39011,OH,Auglaize County,40.561309,-84.224018
39013,OH,Belmont County,40.017682,-80.967727
39015,OH,Brown County,38.931377,-83.866772
39017,OH,Butler County,39.439747,-84.565734
39019,OH,Carroll County,40.579884,-81.090787
39021,OH,Champaign County,40.132775,-83.767604
39023,OH,Clark County,39.917032,-83.783676
39025,OH,Clermont County,39.052054,-84.149485
39027,OH,Clinton County,39.430225,-83.795682
39029,OH,Columbiana County,40.770073,-80.778455
39031,OH,Coshocton County,40.29671,-81.930109
39033,OH,Crawford County,40.848524,-82.924783
39035,OH,Cuyahoga County,41.760392,-81.724217
39037,OH,Darke County,40.131542,-84.621248
39039,OH,Defiance County,41.321679,-84.486433
39041,OH,Delaware County,40.278941,-83.007462
39043,OH,Erie County,41.554006,-82.525897
39045,OH,Fairfield County,39.747694,-82.626685
39047,OH,Fayette County,39.555246,-83.461893
39049,OH,Franklin County,39.969875,-83.009086
39051,OH,Fulton County,41.597264,-84.124267
39053,OH,Gallia County,38.817046,-82.301746
39055,OH,Geauga County,41.499322,-81.173505
39057,OH,Greene County,39.687479,-83.894894
39059,OH,Guernsey County,40.056665,-81.497875
39061,OH,Hamilton County,39.196927,-84.544187
39063,OH,Hancock County,41.000471,-83.666034
39065,OH,Hardin County,40.660415,-83.664077
39067,OH,Harrison County,40.292318,-81.091565
39069,OH,Henry County,41.331584,-84.0689
39071,OH,Highland County,39.184422,-83.601359
39073,OH,Hocking County,39.490342,-82.483447
39075,OH,Holmes County,40.565597,-81.930001
39077,OH,Huron County,41.14508,-82.594641
39079,OH,Jackson County,39.013477,-82.614142
39081,OH,Jefferson County,40.399384,-80.763527
39083,OH,Knox County,40.40362,-82.422393
39085,OH,Lake County,41.924116,-81.392643
39087,OH,Lawrence County,38.603866,-82.517186
39089,OH,Licking County,40.091505,-82.483435
39091,OH,Logan County,40.387553,-83.766343
39093,OH,Lorain County,41.438805,-82.179722
39095,OH,Lucas County,41.682321,-83.468903
39097,OH,Madison County,39.896607,-83.400885
39099,OH,Mahoning County,41.01088,-80.770396
39101,OH,Marion County,40.588034,-83.168803
39103,OH,Medina County,41.116174,-81.899764
39105,OH,Meigs County,39.089807,-82.028397
39107,OH,Mercer County,40.535333,-84.632059
39109,OH,Miami County,40.053326,-84.228413
39111,OH,Monroe County,39.726253,-81.090983
39113,OH,Montgomery County,39.753736,-84.290591
39115,OH,Morgan County,39.624946,-81.861697
39117,OH,Morrow County,40.525266,-82.797729
39119,OH,Muskingum County,39.966046,-81.943506
39121,OH,Noble County,39.767232,-81.452493
39123,OH,Ottawa County,41.545495,-83.012613
39125,OH,Paulding County,41.118948,-84.582125
39127,OH,Perry County,39.743187,-82.237952
39129,OH,Pickaway County,39.648947,-83.052827
39131,OH,Pike County,39.071341,-83.052911
39133,OH,Portage County,41.16897,-81.196962
39135,OH,Preble County,39.73881,-84.644758
39137,OH,Putnam County,41.024533,-84.129879
39139,OH,Richland County,40.774159,-82.542781
39141,OH,Ross County,39.323897,-83.059536
39143,OH,Sandusky County,41.355319,-83.142776
39145,OH,Scioto County,38.814889,-82.998675
39147,OH,Seneca County,41.119992,-83.127547
39149,OH,Shelby County,40.33668,-84.204142
39151,OH,Stark County,40.814131,-81.365667
39153,OH,Summit County,41.121847,-81.534928
39155,OH,Trumbull County,41.306374,-80.7704
39157,OH,Tuscarawas County,40.44749,-81.471105
39159,OH,Union County,40.295901,-83.367042
39161,OH,Van Wert County,40.85552,-84.585775
39163,OH,Vinton County,39.252042,-82.485961
39165,OH,Warren County,39.425652,-84.169906
39167,OH,Washington County,39.450676,-81.490636
39169,OH,Wayne County,40.829661,-81.887194
39171,OH,Williams County,41.564959,-84.584324
39173,OH,Wood County,41.360183,-83.622682
39175,OH,Wyandot County,40.839782,-83.313681
40001,OK,Adair County,35.898043,-94.651026
40003,OK,Alfalfa County,36.729703,-98.323445
40005,OK,Atoka County,34.392469,-96.036558
40007,OK,Beaver County,36.748334,-100.483056
40009,OK,Beckham County,35.270601,-99.690057
40011,OK,Blaine County,35.877782,-98.428934
40013,OK,Bryan County,33.964004,-96.264137
40015,OK,Caddo County,35.16792,-98.381045
40017,OK,Canadian County,35.543354,-97.979889
40019,OK,Carter County,34.251848,-97.287927
40021,OK,Cherokee County,35.904367,-94.996796
40023,OK,Choctaw County,34.027645,-95.554208
40025,OK,Cimarron County,36.74839,-102.517698
40027,OK,Cleveland County,35.206376,-97.323088
40029,OK,Coal County,34.582861,-96.288039
40031,OK,Comanche County,34.66263,-98.476612
40033,OK,Cotton County,34.290676,-98.373438
40035,OK,Craig County,36.76389,-95.201553
40037,OK,Creek County,35.907732,-96.379793
40039,OK,Custer County,35.645601,-98.997386
40041,OK,Delaware County,36.393375,-94.808217
40043,OK,Dewey County,35.97796,-99.014385
40045,OK,Ellis County,36.224258,-99.750139
40047,OK,Garfield County,36.378054,-97.78845
40049,OK,Garvin County,34.70935,-97.312723
40051,OK,Grady County,35.021058,-97.88689
40053,OK,Grant County,36.788254,-97.788151
40055,OK,Greer County,34.933853,-99.552968
40057,OK,Harmon County,34.745971,-99.844194
40059,OK,Harper County,36.80035,-99.662805
40061,OK,Haskell County,35.232295,-95.109576
40063,OK,Hughes County,35.052934,-96.251183
40065,OK,Jackson County,34.594006,-99.412235
40067,OK,Jefferson County,34.105082,-97.83889
40069,OK,Johnston County,34.313455,-96.654254
40071,OK,Kay County,36.814885,-97.143862
40073,OK,Kingfisher County,35.949436,-97.934557
40075,OK,Kiowa County,34.921489,-98.981617
40077,OK,Latimer County,34.875137,-95.272262
40079,OK,Le Flore County,34.897356,-94.695074
40081,OK,Lincoln County,35.703117,-96.881392
40083,OK,Logan County,35.914151,-97.450764
40085,OK,Love County,33.957804,-97.245093
40087,OK,McClain County,35.016436,-97.449803
40089,OK,McCurtain County,34.117073,-94.766086
40091,OK,McIntosh County,35.369108,-95.671787
40093,OK,Major County,36.313119,-98.542015
40095,OK,Marshall County,34.027007,-96.770533
40097,OK,Mayes County,36.303804,-95.235638
40099,OK,Murray County,34.485766,-97.071557
40101,OK,Muskogee County,35.617551,-95.383911
40103,OK,Noble County,36.384901,-97.236335
40105,OK,Nowata County,36.789615,-95.613312
40107,OK,Okfuskee County,35.466804,-96.327762
40109,OK,Oklahoma County,35.554611,-97.409401
40111,OK,Okmulgee County,35.6435,-95.965947
40113,OK,Osage County,36.624299,-96.408112
40115,OK,Ottawa County,36.835764,-94.802681
40117,OK,Pawnee County,36.313704,-96.696669
40119,OK,Payne County,36.079225,-96.975255
40121,OK,Pittsburg County,34.92554,-95.74813
40123,OK,Pontotoc County,34.721446,-96.691971
40125,OK,Pottawatomie County,35.211393,-96.957007
40127,OK,Pushmataha County,34.377899,-95.408082
40129,OK,Roger Mills County,35.708554,-99.741572
40131,OK,Rogers County,36.377794,-95.601383
40133,OK,Seminole County,35.158366,-96.602857
40135,OK,Sequoyah County,35.502435,-94.750757
40137,OK,Stephens County,34.481361,-97.855607
40139,OK,Texas County,36.746317,-101.483855
40141,OK,Tillman County,34.371085,-98.931701
40143,OK,Tulsa County,36.120318,-95.941813
40145,OK,Wagoner County,35.963479,-95.514098
40147,OK,Washington County,36.70438,-95.906155
40149,OK,Washita County,35.289497,-98.991436
40151,OK,Woods County,36.726984,-98.863649
40153,OK,Woodward County,36.425619,-99.273661
41001,OR,Baker County,44.703427,-117.691933
41003,OR,Benton County,44.493882,-123.424664
41005,OR,Clackamas County,45.160493,-122.195127
41007,OR,Clatsop County,46.024509,-123.705037
41009,OR,Columbia County,45.941932,-123.081079
41011,OR,Coos County,43.18591,-124.094133
41013,OR,Crook County,44.163054,-120.371585
41015,OR,Curry County,42.466439,-124.210929
41017,OR,Deschutes County,43.915118,-121.225575
41019,OR,Douglas County,43.286328,-123.154476
41021,OR,Gilliam County,45.43059,-120.319901
41023,OR,Grant County,44.496326,-119.014057
41025,OR,Harney County,43.064449,-118.987169
41027,OR,Hood River County,45.511775,-121.655976
41029,OR,Jackson County,42.411621,-122.675611
41031,OR,Jefferson County,44.645151,-121.178632
